[
  {
    "name": "いちにいさん天文館店",
    "area": "天文館",
    "genre": "黒豚",
    "description": "黒豚しゃぶしゃぶの定番店",
    "address": "鹿児島県鹿児島市東千石町11-6",
    "lat": 31.5891,
    "lng": 130.5522
  },
  {
    "name": "天文館むじゃき",
    "area": "天文館",
    "genre": "スイーツ",
    "description": "白熊で知られる老舗甘味処",
    "address": "鹿児島県鹿児島市千日町5-8",
    "lat": 31.5878,
    "lng": 130.5518
  },
  {
    "name": "黒かつ亭 天文館店",
    "area": "天文館",
    "genre": "黒豚",
    "description": "黒豚とんかつの人気店",
    "address": "鹿児島県鹿児島市山下町2-2",
    "lat": 31.5921,
    "lng": 130.5524
  },
  {
    "name": "吾愛人 天文館本店",
    "area": "天文館",
    "genre": "郷土料理",
    "description": "郷土料理と黒豚料理の老舗",
    "address": "鹿児島県鹿児島市東千石町9-14",
    "lat": 31.589,
    "lng": 130.5525
  },
  {
    "name": "熊襲亭",
    "area": "天文館",
    "genre": "郷土料理",
    "description": "きびなごや黒豚を味わえる名店",
    "address": "鹿児島県鹿児島市東千石町6-10",
    "lat": 31.5892,
    "lng": 130.552
  },
  {
    "name": "こむらさき 天文館店",
    "area": "天文館",
    "genre": "ラーメン",
    "description": "鹿児島ラーメンの老舗",
    "address": "鹿児島県鹿児島市東千石町11-19",
    "lat": 31.5888,
    "lng": 130.5522
  },
  {
    "name": "のり一",
    "area": "天文館",
    "genre": "ラーメン",
    "description": "締めにも使いやすい人気ラーメン",
    "address": "鹿児島県鹿児島市山之口町9-3",
    "lat": 31.5872,
    "lng": 130.5528
  },
  {
    "name": "豚とろ 天文館本店",
    "area": "天文館",
    "genre": "ラーメン",
    "description": "とろけるチャーシューが名物",
    "address": "鹿児島県鹿児島市山之口町9-41",
    "lat": 31.5868,
    "lng": 130.5528
  },
  {
    "name": "あぢもり",
    "area": "天文館",
    "genre": "黒豚",
    "description": "黒豚しゃぶしゃぶの有名店",
    "address": "鹿児島県鹿児島市千日町13-21",
    "lat": 31.5876,
    "lng": 130.5519
  },
  {
    "name": "華蓮 鹿児島店",
    "area": "天文館",
    "genre": "黒豚",
    "description": "鹿児島黒牛と黒豚を楽しめる店",
    "address": "鹿児島県鹿児島市山之口町3-12",
    "lat": 31.5874,
    "lng": 130.5527
  },
  {
    "name": "薩摩味市場 極",
    "area": "天文館",
    "genre": "郷土料理",
    "description": "地魚と郷土料理が揃う居酒屋",
    "address": "鹿児島県鹿児島市東千石町2-1",
    "lat": 31.5902,
    "lng": 130.5518
  },
  {
    "name": "やぶ金 天文館店",
    "area": "天文館",
    "genre": "郷土料理",
    "description": "そばや黒豚料理を楽しめる店",
    "address": "鹿児島県鹿児島市千日町8-15",
    "lat": 31.5875,
    "lng": 130.5514
  },
  {
    "name": "満正苑 天文館店",
    "area": "天文館",
    "genre": "その他",
    "description": "担々麺が人気の中華料理店",
    "address": "鹿児島県鹿児島市東千石町11-15",
    "lat": 31.5887,
    "lng": 130.5521
  },
  {
    "name": "めっけもん 天文館店",
    "area": "天文館",
    "genre": "海鮮",
    "description": "鹿児島の魚を楽しめる回転寿司",
    "address": "鹿児島県鹿児島市千日町1-1",
    "lat": 31.5881,
    "lng": 130.5521
  },
  {
    "name": "焼肉なべしま 天文館店",
    "area": "天文館",
    "genre": "その他",
    "description": "鹿児島発の焼肉チェーン",
    "address": "鹿児島県鹿児島市東千石町1-30",
    "lat": 31.5901,
    "lng": 130.5517
  },
  {
    "name": "Blue Beans Roastery",
    "area": "天文館",
    "genre": "カフェ",
    "description": "自家焙煎コーヒーのカフェ",
    "address": "鹿児島県鹿児島市東千石町8-22",
    "lat": 31.5893,
    "lng": 130.552
  },
  {
    "name": "マルヤガーデンズ レストランフロア",
    "area": "天文館",
    "genre": "その他",
    "description": "買い物途中に使いやすい食事処",
    "address": "鹿児島県鹿児島市呉服町6-5",
    "lat": 31.588,
    "lng": 130.5535
  },
  {
    "name": "山形屋食堂",
    "area": "天文館",
    "genre": "郷土料理",
    "description": "百貨店内の名物食堂",
    "address": "鹿児島県鹿児島市金生町3-1",
    "lat": 31.5916,
    "lng": 130.5571
  },
  {
    "name": "ラーメン小金太",
    "area": "天文館",
    "genre": "ラーメン",
    "description": "天文館で夜にも人気のラーメン店",
    "address": "鹿児島県鹿児島市樋之口町11-5",
    "lat": 31.5863,
    "lng": 130.5522
  },
  {
    "name": "鹿児島ラーメン我流風 天文館本店",
    "area": "天文館",
    "genre": "ラーメン",
    "description": "天文館で使いやすい鹿児島ラーメン",
    "address": "鹿児島県鹿児島市東千石町14-3",
    "lat": 31.589,
    "lng": 130.5531
  },
  {
    "name": "味のとんかつ丸一",
    "area": "天文館",
    "genre": "黒豚",
    "description": "厚切りとんかつで知られる人気店",
    "address": "鹿児島県鹿児島市山之口町1-10",
    "lat": 31.5881,
    "lng": 130.5515
  },
  {
    "name": "黒福多",
    "area": "天文館",
    "genre": "黒豚",
    "description": "黒豚料理を中心に楽しめる店",
    "address": "鹿児島県鹿児島市千日町3-2",
    "lat": 31.5879,
    "lng": 130.552
  },
  {
    "name": "さつま路",
    "area": "天文館",
    "genre": "郷土料理",
    "description": "郷土料理を落ち着いて味わえる店",
    "address": "鹿児島県鹿児島市東千石町6-29",
    "lat": 31.5892,
    "lng": 130.552
  },
  {
    "name": "酒肴 ゆぐち",
    "area": "天文館",
    "genre": "居酒屋",
    "description": "地魚と焼酎を合わせやすい居酒屋",
    "address": "鹿児島県鹿児島市山之口町12-37",
    "lat": 31.5872,
    "lng": 130.553
  },
  {
    "name": "みやま本舗 天文館店",
    "area": "天文館",
    "genre": "郷土料理",
    "description": "鶏料理と郷土料理を楽しめる店",
    "address": "鹿児島県鹿児島市千日町13-25",
    "lat": 31.5874,
    "lng": 130.5519
  },
  {
    "name": "かごっまふるさと屋台村 バスチカ",
    "area": "中央駅",
    "genre": "郷土料理",
    "description": "鹿児島料理を少しずつ巡れる屋台村",
    "address": "鹿児島県鹿児島市中央町11",
    "lat": 31.5842,
    "lng": 130.5423
  },
  {
    "name": "ざぼんラーメン 鹿児島中央駅店",
    "area": "中央駅",
    "genre": "ラーメン",
    "description": "駅近で食べやすい鹿児島ラーメン",
    "address": "鹿児島県鹿児島市中央町1-1",
    "lat": 31.5838,
    "lng": 130.5415
  },
  {
    "name": "黒かつ亭 中央駅本店",
    "area": "中央駅",
    "genre": "黒豚",
    "description": "中央駅近くの黒豚とんかつ店",
    "address": "鹿児島県鹿児島市中央町16-9",
    "lat": 31.5835,
    "lng": 130.543
  },
  {
    "name": "いちにいさん アミュプラザ鹿児島店",
    "area": "中央駅",
    "genre": "黒豚",
    "description": "駅ビルで黒豚しゃぶしゃぶ",
    "address": "鹿児島県鹿児島市中央町1-1",
    "lat": 31.5838,
    "lng": 130.5415
  },
  {
    "name": "廻る寿司めっけもん アミュプラザ鹿児島店",
    "area": "中央駅",
    "genre": "海鮮",
    "description": "駅ビル内の鹿児島回転寿司",
    "address": "鹿児島県鹿児島市中央町1-1",
    "lat": 31.5838,
    "lng": 130.5415
  },
  {
    "name": "とんかつ川久",
    "area": "中央駅",
    "genre": "黒豚",
    "description": "中央駅近くのとんかつ名店",
    "address": "鹿児島県鹿児島市中央町21-13",
    "lat": 31.5828,
    "lng": 130.543
  },
  {
    "name": "薩摩蒸氣屋 鹿児島中央駅店",
    "area": "中央駅",
    "genre": "スイーツ",
    "description": "かすたどんなど土産菓子の定番",
    "address": "鹿児島県鹿児島市中央町1-1",
    "lat": 31.5838,
    "lng": 130.5415
  },
  {
    "name": "黒豚料理 寿庵 中央駅西口店",
    "area": "中央駅",
    "genre": "黒豚",
    "description": "中央駅西口で黒豚料理を味わえる",
    "address": "鹿児島県鹿児島市武1丁目3-1",
    "lat": 31.5835,
    "lng": 130.5395
  },
  {
    "name": "かごしま黒豚 六白亭",
    "area": "中央駅",
    "genre": "黒豚",
    "description": "鹿児島中央駅近くの黒豚料理店",
    "address": "鹿児島県鹿児島市西田2丁目12-34",
    "lat": 31.585,
    "lng": 130.5404
  },
  {
    "name": "吾愛人 中央駅西口店",
    "area": "中央駅",
    "genre": "郷土料理",
    "description": "中央駅近くで郷土料理を楽しめる",
    "address": "鹿児島県鹿児島市西田2丁目21-21",
    "lat": 31.5847,
    "lng": 130.5401
  },
  {
    "name": "豚とろ 鹿児島中央駅前店",
    "area": "中央駅",
    "genre": "ラーメン",
    "description": "駅前で鹿児島ラーメンを食べられる",
    "address": "鹿児島県鹿児島市中央町3-3",
    "lat": 31.5844,
    "lng": 130.5422
  },
  {
    "name": "城山ホテル鹿児島 水簾",
    "area": "城山",
    "genre": "郷土料理",
    "description": "城山で和食と郷土料理を味わう",
    "address": "鹿児島県鹿児島市新照院町41-1",
    "lat": 31.5952,
    "lng": 130.5445
  },
  {
    "name": "城山ホテル鹿児島 ホルト",
    "area": "城山",
    "genre": "その他",
    "description": "展望と洋食を楽しめるホテル内店",
    "address": "鹿児島県鹿児島市新照院町41-1",
    "lat": 31.5952,
    "lng": 130.5445
  },
  {
    "name": "城山ホテル鹿児島 カサブランカ",
    "area": "城山",
    "genre": "カフェ",
    "description": "桜島ビューのホテルラウンジ",
    "address": "鹿児島県鹿児島市新照院町41-1",
    "lat": 31.5952,
    "lng": 130.5445
  },
  {
    "name": "城山ホテル鹿児島 城山ガーデンズ",
    "area": "城山",
    "genre": "その他",
    "description": "ホテル内で幅広い食事に対応",
    "address": "鹿児島県鹿児島市新照院町41-1",
    "lat": 31.5952,
    "lng": 130.5445
  },
  {
    "name": "城山ブルワリー",
    "area": "城山",
    "genre": "その他",
    "description": "城山ホテル内のクラフトビール拠点",
    "address": "鹿児島県鹿児島市新照院町41-1",
    "lat": 31.5952,
    "lng": 130.5445
  },
  {
    "name": "仙巌園 両棒餅屋",
    "area": "その他",
    "genre": "スイーツ",
    "description": "磯名物の両棒餅を味わえる",
    "address": "鹿児島県鹿児島市吉野町9700-1",
    "lat": 31.6179,
    "lng": 130.5787
  },
  {
    "name": "仙巌園 桜華亭",
    "area": "その他",
    "genre": "郷土料理",
    "description": "仙巌園内で郷土料理を楽しむ",
    "address": "鹿児島県鹿児島市吉野町9700-1",
    "lat": 31.6179,
    "lng": 130.5787
  },
  {
    "name": "ぢゃんぼ餅 平田屋",
    "area": "その他",
    "genre": "スイーツ",
    "description": "磯名物ぢゃんぼ餅の老舗",
    "address": "鹿児島県鹿児島市吉野町9673",
    "lat": 31.6171,
    "lng": 130.5776
  },
  {
    "name": "ぢゃんぼ餅 中川家",
    "area": "その他",
    "genre": "スイーツ",
    "description": "磯海岸近くの名物餅店",
    "address": "鹿児島県鹿児島市吉野町9673",
    "lat": 31.617,
    "lng": 130.5778
  },
  {
    "name": "スターバックス コーヒー 鹿児島仙巌園店",
    "area": "その他",
    "genre": "カフェ",
    "description": "仙巌園近くの休憩に使えるカフェ",
    "address": "鹿児島県鹿児島市吉野町9688-1",
    "lat": 31.6175,
    "lng": 130.5778
  },
  {
    "name": "国民宿舎レインボー桜島 レストラン",
    "area": "桜島",
    "genre": "郷土料理",
    "description": "桜島港近くで食事と温泉に便利",
    "address": "鹿児島県鹿児島市桜島横山町1722-16",
    "lat": 31.5931,
    "lng": 130.5994
  },
  {
    "name": "道の駅桜島 火の島めぐみ館",
    "area": "桜島",
    "genre": "郷土料理",
    "description": "桜島小みかんなど地元食材も扱う",
    "address": "鹿児島県鹿児島市桜島横山町1722-48",
    "lat": 31.5927,
    "lng": 130.6013
  },
  {
    "name": "桜島フェリー やぶ金",
    "area": "桜島",
    "genre": "その他",
    "description": "フェリー名物うどんを味わえる",
    "address": "鹿児島県鹿児島市本港新町4-1",
    "lat": 31.5969,
    "lng": 130.5634
  },
  {
    "name": "MINATO CAFE",
    "area": "桜島",
    "genre": "カフェ",
    "description": "桜島港周辺で休憩しやすいカフェ",
    "address": "鹿児島県鹿児島市桜島横山町",
    "lat": 31.593,
    "lng": 130.6001
  },
  {
    "name": "とんかつ竹亭 谷山店",
    "area": "谷山",
    "genre": "黒豚",
    "description": "谷山で人気のとんかつ店",
    "address": "鹿児島県鹿児島市上福元町5723-8",
    "lat": 31.5294,
    "lng": 130.5133
  },
  {
    "name": "焼肉なべしま 与次郎本店",
    "area": "与次郎",
    "genre": "その他",
    "description": "与次郎エリアの焼肉店",
    "address": "鹿児島県鹿児島市与次郎1丁目9-53",
    "lat": 31.5667,
    "lng": 130.5603
  },
  {
    "name": "ふく福 与次郎店",
    "area": "与次郎",
    "genre": "郷土料理",
    "description": "そば・和食を幅広く使える店",
    "address": "鹿児島県鹿児島市与次郎1丁目11-1",
    "lat": 31.5636,
    "lng": 130.5599
  },
  {
    "name": "寿司まどか 慈眼寺店",
    "area": "谷山",
    "genre": "海鮮",
    "description": "谷山方面の回転寿司店",
    "address": "鹿児島県鹿児島市谷山中央5丁目10-14",
    "lat": 31.5222,
    "lng": 130.5161
  },
  {
    "name": "そば茶屋 吹上庵 平川店",
    "area": "谷山",
    "genre": "郷土料理",
    "description": "平川方面で使いやすいそば店",
    "address": "鹿児島県鹿児島市平川町5047-1",
    "lat": 31.4671,
    "lng": 130.5042
  }
]
