[
  {
    "name": "いちにいさん天文館店",
    "area": "天文館",
    "genre": "黒豚",
    "description": "六白黒豚のしゃぶしゃぶをそばつゆで味わう鹿児島らしい一軒。ランチは1,500円前後からで観光途中にも使いやすい。",
    "address": "鹿児島県鹿児島市東千石町11-6",
    "lat": 31.5891,
    "lng": 130.5522
  },
  {
    "name": "天文館むじゃき",
    "area": "天文館",
    "genre": "スイーツ",
    "description": "鹿児島名物の白熊発祥店として知られる甘味処。食事メニューもあり、白熊はレギュラーからミニまで選びやすい。",
    "address": "鹿児島県鹿児島市千日町5-8",
    "lat": 31.5878,
    "lng": 130.5518
  },
  {
    "name": "黒かつ亭 天文館店",
    "area": "天文館",
    "genre": "黒豚",
    "description": "黒豚とんかつを定食で楽しめる専門店。昼は1,500円前後から使いやすく、天文館散策中の食事に向く。",
    "address": "鹿児島県鹿児島市山下町2-2",
    "lat": 31.5921,
    "lng": 130.5524
  },
  {
    "name": "吾愛人 天文館本店",
    "area": "天文館",
    "genre": "郷土料理",
    "description": "黒豚しゃぶしゃぶ、きびなご、さつま揚げなど鹿児島郷土料理をまとめて味わえる老舗。夜は焼酎と合わせたい。",
    "address": "鹿児島県鹿児島市東千石町9-14",
    "lat": 31.589,
    "lng": 130.5525
  },
  {
    "name": "熊襲亭",
    "area": "天文館",
    "genre": "郷土料理",
    "description": "酒ずし、きびなご、黒豚など薩摩料理をコースでも単品でも楽しめる郷土料理店。観光客の初鹿児島ごはんに向く。",
    "address": "鹿児島県鹿児島市東千石町6-10",
    "lat": 31.5892,
    "lng": 130.552
  },
  {
    "name": "こむらさき 天文館店",
    "area": "天文館",
    "genre": "ラーメン",
    "description": "キャベツ入りのあっさり鹿児島ラーメンで知られる老舗。昼食や飲んだ後の軽めの一杯に使いやすい。",
    "address": "鹿児島県鹿児島市東千石町11-19",
    "lat": 31.5888,
    "lng": 130.5522
  },
  {
    "name": "のり一",
    "area": "天文館",
    "genre": "ラーメン",
    "description": "天文館で昔ながらの鹿児島ラーメンを手頃に食べられる人気店。シンプルな一杯で締めにも昼食にも向く。",
    "address": "鹿児島県鹿児島市山之口町9-3",
    "lat": 31.5872,
    "lng": 130.5528
  },
  {
    "name": "豚とろ 天文館本店",
    "area": "天文館",
    "genre": "ラーメン",
    "description": "とろけるチャーシューが名物の鹿児島ラーメン店。観光客にも分かりやすい濃厚系で夜の食事にも便利。",
    "address": "鹿児島県鹿児島市山之口町9-41",
    "lat": 31.5868,
    "lng": 130.5528
  },
  {
    "name": "あぢもり",
    "area": "天文館",
    "genre": "黒豚",
    "description": "黒豚しゃぶしゃぶ発祥の店として知られる名店。夜はやや高めだが、鹿児島らしい食体験を重視する人向き。",
    "address": "鹿児島県鹿児島市千日町13-21",
    "lat": 31.5876,
    "lng": 130.5519
  },
  {
    "name": "華蓮 鹿児島店",
    "area": "天文館",
    "genre": "黒豚",
    "description": "JA鹿児島県経済連系の店で、鹿児島黒牛・黒豚のしゃぶしゃぶやせいろ蒸しが看板。会食にも使いやすい。",
    "address": "鹿児島県鹿児島市山之口町3-12",
    "lat": 31.5874,
    "lng": 130.5527
  },
  {
    "name": "薩摩味市場 極",
    "area": "天文館",
    "genre": "郷土料理",
    "description": "鹿児島の地魚、黒豚、焼酎を一度に楽しめる居酒屋。夜は4,000円前後から郷土料理を選びやすい。",
    "address": "鹿児島県鹿児島市東千石町2-1",
    "lat": 31.5902,
    "lng": 130.5518
  },
  {
    "name": "やぶ金 天文館店",
    "area": "天文館",
    "genre": "郷土料理",
    "description": "そば、うどん、丼ものを中心にした使いやすい食事処。桜島フェリー名物うどんの流れも感じられる。",
    "address": "鹿児島県鹿児島市千日町8-15",
    "lat": 31.5875,
    "lng": 130.5514
  },
  {
    "name": "満正苑 天文館店",
    "area": "天文館",
    "genre": "その他",
    "description": "担々麺が人気の中華料理店。鹿児島グルメの合間に辛味のある麺を食べたい時に使いやすい。",
    "address": "鹿児島県鹿児島市東千石町11-15",
    "lat": 31.5887,
    "lng": 130.5521
  },
  {
    "name": "めっけもん 天文館店",
    "area": "天文館",
    "genre": "海鮮",
    "description": "鹿児島の鮮魚を気軽に楽しめる回転寿司。地魚や旬のネタを中心に、昼夜どちらも使いやすい。",
    "address": "鹿児島県鹿児島市千日町1-1",
    "lat": 31.5881,
    "lng": 130.5521
  },
  {
    "name": "焼肉なべしま 天文館店",
    "area": "天文館",
    "genre": "その他",
    "description": "鹿児島発の焼肉チェーン。黒毛和牛や定食系も選びやすく、グループ旅行の夕食候補になる。",
    "address": "鹿児島県鹿児島市東千石町1-30",
    "lat": 31.5901,
    "lng": 130.5517
  },
  {
    "name": "Blue Beans Roastery",
    "area": "天文館",
    "genre": "カフェ",
    "description": "自家焙煎コーヒーを楽しめる天文館のカフェ。観光の合間に一息つく用途で使いやすい。",
    "address": "鹿児島県鹿児島市東千石町8-22",
    "lat": 31.5893,
    "lng": 130.552
  },
  {
    "name": "マルヤガーデンズ レストランフロア",
    "area": "天文館",
    "genre": "その他",
    "description": "天文館の商業施設内にある飲食フロア。買い物や雨の日の休憩と合わせて食事先を選びやすい。",
    "address": "鹿児島県鹿児島市呉服町6-5",
    "lat": 31.588,
    "lng": 130.5535
  },
  {
    "name": "山形屋食堂",
    "area": "天文館",
    "genre": "郷土料理",
    "description": "鹿児島の老舗百貨店内にある名物食堂。焼きそばなど昔ながらのメニューもあり、買い物途中に便利。",
    "address": "鹿児島県鹿児島市金生町3-1",
    "lat": 31.5916,
    "lng": 130.5571
  },
  {
    "name": "ラーメン小金太",
    "area": "天文館",
    "genre": "ラーメン",
    "description": "天文館で人気の鹿児島ラーメン店。ラーメンは千円前後で、飲んだ後の締めにも昼食にも使える。",
    "address": "鹿児島県鹿児島市樋之口町11-5",
    "lat": 31.5863,
    "lng": 130.5522
  },
  {
    "name": "鹿児島ラーメン我流風 天文館本店",
    "area": "天文館",
    "genre": "ラーメン",
    "description": "鹿児島ラーメンを分かりやすく楽しめる天文館の店。観光中に短時間で食べたい時に向く。",
    "address": "鹿児島県鹿児島市東千石町14-3",
    "lat": 31.589,
    "lng": 130.5531
  },
  {
    "name": "味のとんかつ丸一",
    "area": "天文館",
    "genre": "黒豚",
    "description": "厚切りとんかつで知られる天文館近くの人気店。昼は行列もあるが、肉系ランチを狙うなら候補。",
    "address": "鹿児島県鹿児島市山之口町1-10",
    "lat": 31.5881,
    "lng": 130.5515
  },
  {
    "name": "黒福多",
    "area": "天文館",
    "genre": "黒豚",
    "description": "黒豚とんかつや黒豚料理を楽しめる天文館の店。観光客にも分かりやすい鹿児島肉料理の選択肢。",
    "address": "鹿児島県鹿児島市千日町3-2",
    "lat": 31.5879,
    "lng": 130.552
  },
  {
    "name": "さつま路",
    "area": "天文館",
    "genre": "郷土料理",
    "description": "きびなご、さつま揚げ、黒豚など薩摩料理を落ち着いて味わえる店。夜の郷土料理候補に向く。",
    "address": "鹿児島県鹿児島市東千石町6-29",
    "lat": 31.5892,
    "lng": 130.552
  },
  {
    "name": "酒肴 ゆぐち",
    "area": "天文館",
    "genre": "居酒屋",
    "description": "地魚と鹿児島焼酎を合わせやすい居酒屋。夜は4,000円前後から、観光客にも入りやすい雰囲気。",
    "address": "鹿児島県鹿児島市山之口町12-37",
    "lat": 31.5872,
    "lng": 130.553
  },
  {
    "name": "みやま本舗 天文館店",
    "area": "天文館",
    "genre": "郷土料理",
    "description": "鶏刺しや炭火焼など鹿児島の鶏料理を楽しめる店。焼酎と合わせた夜ごはんに使いやすい。",
    "address": "鹿児島県鹿児島市千日町13-25",
    "lat": 31.5874,
    "lng": 130.5519
  },
  {
    "name": "かごっまふるさと屋台村 バスチカ",
    "area": "中央駅",
    "genre": "郷土料理",
    "description": "鹿児島中央駅近くで複数店舗をはしごできる屋台村。郷土料理や焼酎を少量ずつ楽しみたい人向き。",
    "address": "鹿児島県鹿児島市中央町11",
    "lat": 31.5842,
    "lng": 130.5423
  },
  {
    "name": "ざぼんラーメン 鹿児島中央駅店",
    "area": "中央駅",
    "genre": "ラーメン",
    "description": "鹿児島中央駅近くで食べられる定番鹿児島ラーメン。移動前後の短時間ランチに便利。",
    "address": "鹿児島県鹿児島市中央町1-1",
    "lat": 31.5838,
    "lng": 130.5415
  },
  {
    "name": "黒かつ亭 中央駅本店",
    "area": "中央駅",
    "genre": "黒豚",
    "description": "中央駅周辺で黒豚とんかつを食べたい時の定番。ランチ定食は1,500円前後から選びやすい。",
    "address": "鹿児島県鹿児島市中央町16-9",
    "lat": 31.5835,
    "lng": 130.543
  },
  {
    "name": "いちにいさん アミュプラザ鹿児島店",
    "area": "中央駅",
    "genre": "黒豚",
    "description": "駅ビル内で六白黒豚しゃぶしゃぶや蒸し料理を楽しめる。列車移動前後の鹿児島グルメに便利。",
    "address": "鹿児島県鹿児島市中央町1-1",
    "lat": 31.5838,
    "lng": 130.5415
  },
  {
    "name": "廻る寿司めっけもん アミュプラザ鹿児島店",
    "area": "中央駅",
    "genre": "海鮮",
    "description": "駅直結で鹿児島の魚を気軽に楽しめる回転寿司。地魚や旬ネタを短時間で食べたい時に向く。",
    "address": "鹿児島県鹿児島市中央町1-1",
    "lat": 31.5838,
    "lng": 130.5415
  },
  {
    "name": "とんかつ川久",
    "area": "中央駅",
    "genre": "黒豚",
    "description": "鹿児島中央駅近くのとんかつ人気店。黒豚ロースやヒレをしっかり食べたいランチに向く。",
    "address": "鹿児島県鹿児島市中央町21-13",
    "lat": 31.5828,
    "lng": 130.543
  },
  {
    "name": "薩摩蒸氣屋 鹿児島中央駅店",
    "area": "中央駅",
    "genre": "スイーツ",
    "description": "かすたどん、かるかんなど鹿児島土産の定番を買える。甘いもの休憩や手土産探しに便利。",
    "address": "鹿児島県鹿児島市中央町1-1",
    "lat": 31.5838,
    "lng": 130.5415
  },
  {
    "name": "黒豚料理 寿庵 中央駅西口店",
    "area": "中央駅",
    "genre": "黒豚",
    "description": "黒豚しゃぶしゃぶやとんかつを中央駅西口近くで楽しめる。昼夜とも鹿児島肉料理の候補になる。",
    "address": "鹿児島県鹿児島市武1丁目3-1",
    "lat": 31.5835,
    "lng": 130.5395
  },
  {
    "name": "かごしま黒豚 六白亭",
    "area": "中央駅",
    "genre": "黒豚",
    "description": "黒豚しゃぶしゃぶや黒豚料理を中央駅近くで味わえる店。観光初日の夕食にも使いやすい。",
    "address": "鹿児島県鹿児島市西田2丁目12-34",
    "lat": 31.585,
    "lng": 130.5404
  },
  {
    "name": "吾愛人 中央駅西口店",
    "area": "中央駅",
    "genre": "郷土料理",
    "description": "中央駅近くで郷土料理をまとめて食べられる支店。黒豚、きびなご、焼酎を合わせやすい。",
    "address": "鹿児島県鹿児島市西田2丁目21-21",
    "lat": 31.5847,
    "lng": 130.5401
  },
  {
    "name": "豚とろ 鹿児島中央駅前店",
    "area": "中央駅",
    "genre": "ラーメン",
    "description": "駅前でとろけるチャーシューの鹿児島ラーメンを食べられる。移動前後の一杯に便利。",
    "address": "鹿児島県鹿児島市中央町3-3",
    "lat": 31.5844,
    "lng": 130.5422
  },
  {
    "name": "城山ホテル鹿児島 水簾",
    "area": "城山",
    "genre": "郷土料理",
    "description": "城山ホテル内の和食店。黒豚や会席を落ち着いて楽しめ、展望や温泉と合わせた食事に向く。",
    "address": "鹿児島県鹿児島市新照院町41-1",
    "lat": 31.5952,
    "lng": 130.5445
  },
  {
    "name": "城山ホテル鹿児島 ホルト",
    "area": "城山",
    "genre": "その他",
    "description": "ホテル内の洋食レストラン。桜島を望む滞在と合わせて、ランチやディナーをゆっくり取れる。",
    "address": "鹿児島県鹿児島市新照院町41-1",
    "lat": 31.5952,
    "lng": 130.5445
  },
  {
    "name": "城山ホテル鹿児島 カサブランカ",
    "area": "城山",
    "genre": "カフェ",
    "description": "桜島を望むホテルラウンジ。ケーキやドリンクで、城山観光の休憩に使いやすい。",
    "address": "鹿児島県鹿児島市新照院町41-1",
    "lat": 31.5952,
    "lng": 130.5445
  },
  {
    "name": "城山ホテル鹿児島 城山ガーデンズ",
    "area": "城山",
    "genre": "その他",
    "description": "ホテル内のカジュアルな食事処。家族連れやグループで、幅広いメニューを選びたい時に便利。",
    "address": "鹿児島県鹿児島市新照院町41-1",
    "lat": 31.5952,
    "lng": 130.5445
  },
  {
    "name": "城山ブルワリー",
    "area": "城山",
    "genre": "その他",
    "description": "城山ホテル内のクラフトビール拠点。鹿児島素材を使ったビールを軽食と一緒に楽しめる。",
    "address": "鹿児島県鹿児島市新照院町41-1",
    "lat": 31.5952,
    "lng": 130.5445
  },
  {
    "name": "仙巌園 両棒餅屋",
    "area": "その他",
    "genre": "スイーツ",
    "description": "仙巌園名物の両棒餅を味わえる甘味処。観光の合間に鹿児島らしい素朴なおやつを楽しめる。",
    "address": "鹿児島県鹿児島市吉野町9700-1",
    "lat": 31.6179,
    "lng": 130.5787
  },
  {
    "name": "仙巌園 桜華亭",
    "area": "その他",
    "genre": "郷土料理",
    "description": "仙巌園内で郷土料理を楽しめる食事処。桜島を望む磯観光と合わせて昼食に使いやすい。",
    "address": "鹿児島県鹿児島市吉野町9700-1",
    "lat": 31.6179,
    "lng": 130.5787
  },
  {
    "name": "ぢゃんぼ餅 平田屋",
    "area": "その他",
    "genre": "スイーツ",
    "description": "磯名物ぢゃんぼ餅の老舗。砂糖醤油だれの素朴な甘じょっぱさで、仙巌園周辺の休憩に最適。",
    "address": "鹿児島県鹿児島市吉野町9673",
    "lat": 31.6171,
    "lng": 130.5776
  },
  {
    "name": "ぢゃんぼ餅 中川家",
    "area": "その他",
    "genre": "スイーツ",
    "description": "磯海岸近くでぢゃんぼ餅を味わえる店。仙巌園や尚古集成館の前後に立ち寄りやすい。",
    "address": "鹿児島県鹿児島市吉野町9673",
    "lat": 31.617,
    "lng": 130.5778
  },
  {
    "name": "スターバックス コーヒー 鹿児島仙巌園店",
    "area": "その他",
    "genre": "カフェ",
    "description": "登録有形文化財を活用した店舗。磯エリアで桜島を感じながらコーヒー休憩ができる。",
    "address": "鹿児島県鹿児島市吉野町9688-1",
    "lat": 31.6175,
    "lng": 130.5778
  },
  {
    "name": "国民宿舎レインボー桜島 レストラン",
    "area": "桜島",
    "genre": "郷土料理",
    "description": "桜島港近くで食事と温泉を合わせやすい施設。桜島小みかんや地元食材のメニューを狙える。",
    "address": "鹿児島県鹿児島市桜島横山町1722-16",
    "lat": 31.5931,
    "lng": 130.5994
  },
  {
    "name": "道の駅桜島 火の島めぐみ館",
    "area": "桜島",
    "genre": "郷土料理",
    "description": "桜島小みかんや地元産品を扱う道の駅。軽食や土産探しを桜島観光と合わせやすい。",
    "address": "鹿児島県鹿児島市桜島横山町1722-48",
    "lat": 31.5927,
    "lng": 130.6013
  },
  {
    "name": "桜島フェリー やぶ金",
    "area": "桜島",
    "genre": "その他",
    "description": "桜島フェリー名物のうどんを船内で味わえる。短い乗船時間で食べる体験自体が観光になる。",
    "address": "鹿児島県鹿児島市本港新町4-1",
    "lat": 31.5969,
    "lng": 130.5634
  },
  {
    "name": "MINATO CAFE",
    "area": "桜島",
    "genre": "カフェ",
    "description": "桜島港周辺で休憩しやすいカフェ。フェリー待ちや溶岩なぎさ公園散策後に立ち寄りやすい。",
    "address": "鹿児島県鹿児島市桜島横山町",
    "lat": 31.593,
    "lng": 130.6001
  },
  {
    "name": "とんかつ竹亭 谷山店",
    "area": "谷山",
    "genre": "黒豚",
    "description": "谷山で人気のとんかつ店。ボリュームのある定食を比較的手頃に楽しめ、車移動時に便利。",
    "address": "鹿児島県鹿児島市上福元町5723-8",
    "lat": 31.5294,
    "lng": 130.5133
  },
  {
    "name": "焼肉なべしま 与次郎本店",
    "area": "与次郎",
    "genre": "その他",
    "description": "与次郎エリアの焼肉店。鹿児島発チェーンらしく肉系の夕食をグループで取りやすい。",
    "address": "鹿児島県鹿児島市与次郎1丁目9-53",
    "lat": 31.5667,
    "lng": 130.5603
  },
  {
    "name": "ふく福 与次郎店",
    "area": "与次郎",
    "genre": "郷土料理",
    "description": "そば、和食、丼ものを幅広く選べる店。与次郎の買い物や水族館方面の移動時に使いやすい。",
    "address": "鹿児島県鹿児島市与次郎1丁目11-1",
    "lat": 31.5636,
    "lng": 130.5599
  },
  {
    "name": "寿司まどか 慈眼寺店",
    "area": "谷山",
    "genre": "海鮮",
    "description": "谷山方面で寿司を気軽に食べられる回転寿司。家族連れや車移動の食事候補に向く。",
    "address": "鹿児島県鹿児島市谷山中央5丁目10-14",
    "lat": 31.5222,
    "lng": 130.5161
  },
  {
    "name": "そば茶屋 吹上庵 平川店",
    "area": "谷山",
    "genre": "郷土料理",
    "description": "鹿児島で親しまれるそば茶屋。平川動物公園方面の移動時に、そばや定食を取りやすい。",
    "address": "鹿児島県鹿児島市平川町5047-1",
    "lat": 31.4671,
    "lng": 130.5042
  },
  {
    "name": "薩摩蒸氣屋 菓々子横丁",
    "area": "天文館",
    "genre": "スイーツ",
    "description": "かるかん、かすたどん、焼きどうなつを楽しめる菓子店。天文館散策中の休憩や土産探しに便利。",
    "address": "鹿児島県鹿児島市東千石町13-14",
    "lat": 31.5889,
    "lng": 130.5529
  },
  {
    "name": "カフェ彼女の家 天文館店",
    "area": "天文館",
    "genre": "カフェ",
    "description": "天文館で長く親しまれるカフェ。黄熊など白熊系スイーツや食事を楽しめ、休憩に使いやすい。",
    "address": "鹿児島県鹿児島市東千石町8-18",
    "lat": 31.5893,
    "lng": 130.5522
  },
  {
    "name": "CHIN JUKAN POTTERY 喫茶室",
    "area": "天文館",
    "genre": "カフェ",
    "description": "薩摩焼の器でドリンクや甘味を楽しめる喫茶室。鹿児島らしい器文化も感じられる。",
    "address": "鹿児島県鹿児島市東千石町",
    "lat": 31.589,
    "lng": 130.5525
  },
  {
    "name": "ライムライト",
    "area": "天文館",
    "genre": "カフェ",
    "description": "天文館の老舗喫茶として知られる店。コーヒーと軽食で、街歩きの休憩に使いやすい。",
    "address": "鹿児島県鹿児島市東千石町",
    "lat": 31.5891,
    "lng": 130.5523
  },
  {
    "name": "ノギノダイナー",
    "area": "天文館",
    "genre": "カフェ",
    "description": "ハンバーガーやカフェメニューを楽しめる店。黒豚や郷土料理以外を食べたい時の選択肢。",
    "address": "鹿児島県鹿児島市東千石町",
    "lat": 31.589,
    "lng": 130.552
  },
  {
    "name": "addCoffee アミュプラザ鹿児島店",
    "area": "中央駅",
    "genre": "カフェ",
    "description": "鹿児島中央駅直結で使いやすいカフェ。列車待ちや買い物途中にコーヒー休憩ができる。",
    "address": "鹿児島県鹿児島市中央町1-1",
    "lat": 31.5838,
    "lng": 130.5415
  },
  {
    "name": "Andenken アミュプラザ鹿児島店",
    "area": "中央駅",
    "genre": "スイーツ",
    "description": "バウムクーヘンなど洋菓子を買える駅ビル内店舗。手土産や甘い休憩に使いやすい。",
    "address": "鹿児島県鹿児島市中央町1-1",
    "lat": 31.5838,
    "lng": 130.5415
  },
  {
    "name": "PRONTO 鹿児島中央駅西口店",
    "area": "中央駅",
    "genre": "カフェ",
    "description": "中央駅西口で朝から夜まで使いやすいカフェ。軽食や待ち合わせ、作業にも向く。",
    "address": "鹿児島県鹿児島市武1丁目1-2",
    "lat": 31.5836,
    "lng": 130.5401
  },
  {
    "name": "魚庄",
    "area": "天文館",
    "genre": "海鮮",
    "description": "鹿児島の地魚や刺身を楽しめる海鮮居酒屋。夜は焼酎と一緒に魚料理を食べたい時に向く。",
    "address": "鹿児島県鹿児島市山之口町",
    "lat": 31.5873,
    "lng": 130.5527
  },
  {
    "name": "市場食堂 城南店",
    "area": "その他",
    "genre": "海鮮",
    "description": "市場近くで海鮮丼や刺身定食を食べられる店。朝昼に魚をしっかり食べたい人向き。",
    "address": "鹿児島県鹿児島市城南町",
    "lat": 31.5806,
    "lng": 130.5613
  },
  {
    "name": "海鮮料理 こんぴら丸 谷山本店",
    "area": "谷山",
    "genre": "海鮮",
    "description": "刺身定食や海鮮丼を楽しめる谷山の海鮮店。昼は1,500円前後から魚系ランチを選びやすい。",
    "address": "鹿児島県鹿児島市南栄5丁目10-1",
    "lat": 31.5113,
    "lng": 130.5179
  },
  {
    "name": "うなぎの末よし",
    "area": "天文館",
    "genre": "その他",
    "description": "鹿児島で親しまれるうなぎ料理店。ランチはやや高めだが、鹿児島産うなぎを味わいたい時に向く。",
    "address": "鹿児島県鹿児島市東千石町14-10",
    "lat": 31.5889,
    "lng": 130.553
  },
  {
    "name": "炉ばた割烹 一心",
    "area": "天文館",
    "genre": "居酒屋",
    "description": "魚介や炉端料理を焼酎と楽しめる割烹居酒屋。観光客にも鹿児島の夜ごはんとして提案しやすい。",
    "address": "鹿児島県鹿児島市山之口町",
    "lat": 31.5872,
    "lng": 130.5527
  },
  {
    "name": "炭火神吉",
    "area": "天文館",
    "genre": "居酒屋",
    "description": "炭火焼きと焼酎を楽しめる居酒屋。黒豚や鶏料理以外の鹿児島の夜の選択肢になる。",
    "address": "鹿児島県鹿児島市山之口町",
    "lat": 31.5871,
    "lng": 130.5526
  },
  {
    "name": "鹿児島漁港直送 かごしま魚市場",
    "area": "中央駅",
    "genre": "海鮮",
    "description": "中央駅周辺で刺身や魚料理を楽しめる海鮮系居酒屋。移動前後の夕食にも使いやすい。",
    "address": "鹿児島県鹿児島市中央町",
    "lat": 31.584,
    "lng": 130.5423
  },
  {
    "name": "とり翔",
    "area": "中央駅",
    "genre": "居酒屋",
    "description": "鶏料理と焼酎を合わせやすい中央駅周辺の居酒屋。夜は3,000円台から使いやすい。",
    "address": "鹿児島県鹿児島市中央町",
    "lat": 31.5841,
    "lng": 130.5425
  },
  {
    "name": "焼肉ヨコムラ 小松原本店",
    "area": "谷山",
    "genre": "焼肉",
    "description": "谷山方面で鹿児島黒牛や焼肉を楽しめる店。車移動の夕食や家族利用に向く。",
    "address": "鹿児島県鹿児島市小松原1丁目43-19",
    "lat": 31.5313,
    "lng": 130.5286
  },
  {
    "name": "肉のヨコムラ",
    "area": "谷山",
    "genre": "焼肉",
    "description": "谷山で肉料理を楽しめる地元店。焼肉や定食系のしっかりした食事を取りたい時に便利。",
    "address": "鹿児島県鹿児島市小松原1丁目43-19",
    "lat": 31.5313,
    "lng": 130.5286
  },
  {
    "name": "焼肉なべしま 谷山本町店",
    "area": "谷山",
    "genre": "焼肉",
    "description": "谷山で使いやすい焼肉店。鹿児島発チェーンで、家族連れやグループの夕食に向く。",
    "address": "鹿児島県鹿児島市谷山中央",
    "lat": 31.526,
    "lng": 130.518
  },
  {
    "name": "農家レストランたわわ",
    "area": "谷山",
    "genre": "郷土料理",
    "description": "鹿児島県産の農畜産物を使ったビュッフェ。ランチは野菜多めで、郊外ドライブ時に向く。",
    "address": "鹿児島県鹿児島市西谷山1丁目5",
    "lat": 31.5127,
    "lng": 130.5029
  },
  {
    "name": "たわわのわ",
    "area": "谷山",
    "genre": "カフェ",
    "description": "たわわタウン内で地元食材を使った軽食やスイーツを楽しめる。買い物休憩にも便利。",
    "address": "鹿児島県鹿児島市西谷山1丁目5",
    "lat": 31.5127,
    "lng": 130.5029
  },
  {
    "name": "仏跳麺 笹貫バイパス店",
    "area": "谷山",
    "genre": "ラーメン",
    "description": "黒豚系ラーメンを谷山方面で食べられる店。車移動時の昼食候補として使いやすい。",
    "address": "鹿児島県鹿児島市東谷山4丁目18-1",
    "lat": 31.5264,
    "lng": 130.5274
  },
  {
    "name": "ふく福 中山店",
    "area": "谷山",
    "genre": "郷土料理",
    "description": "そば、和食、定食を幅広く選べる郊外店。家族連れや車移動の食事に使いやすい。",
    "address": "鹿児島県鹿児島市中山2丁目1-12",
    "lat": 31.5486,
    "lng": 130.5111
  },
  {
    "name": "THE PENTHOUSE",
    "area": "与次郎",
    "genre": "その他",
    "description": "海沿いのホテル内レストラン。桜島や錦江湾の眺めと合わせて食事を楽しみたい時に向く。",
    "address": "鹿児島県鹿児島市与次郎1丁目",
    "lat": 31.5645,
    "lng": 130.5605
  },
  {
    "name": "CAFE&BAR VENIHANA",
    "area": "与次郎",
    "genre": "カフェ",
    "description": "ランチ、カフェ、スイーツまで使える与次郎の店。クレープなど甘いメニューも充実している。",
    "address": "鹿児島県鹿児島市与次郎",
    "lat": 31.5639,
    "lng": 130.56
  },
  {
    "name": "ざぼんラーメン 与次郎店",
    "area": "与次郎",
    "genre": "ラーメン",
    "description": "与次郎で鹿児島ラーメンを食べられる定番店。買い物や海沿いドライブの食事に便利。",
    "address": "鹿児島県鹿児島市与次郎",
    "lat": 31.565,
    "lng": 130.5602
  },
  {
    "name": "めっけもん ドルフィンポート店周辺代替",
    "area": "与次郎",
    "genre": "海鮮",
    "description": "与次郎・海沿い方面で寿司を食べたい時の候補。地魚や回転寿司系を気軽に楽しめる。",
    "address": "鹿児島県鹿児島市与次郎周辺",
    "lat": 31.564,
    "lng": 130.5604
  },
  {
    "name": "Kurozu Farm CAFE AND MARKET",
    "area": "その他",
    "genre": "カフェ",
    "description": "黒酢ドリンクやスイーツを楽しめるカフェ。霧島方面へ足を延ばす時の鹿児島らしい寄り道に向く。",
    "address": "鹿児島県霧島市福山町福山3075",
    "lat": 31.6752,
    "lng": 130.8495
  },
  {
    "name": "桜島カフェ",
    "area": "桜島",
    "genre": "カフェ",
    "description": "桜島と錦江湾を眺めながら休憩できるカフェ。ドライブや展望所巡りの合間に使いやすい。",
    "address": "鹿児島県鹿児島市桜島周辺",
    "lat": 31.593,
    "lng": 130.6008
  },
  {
    "name": "道の駅桜島 レストラン",
    "area": "桜島",
    "genre": "郷土料理",
    "description": "桜島大根や小みかんなど地元食材を意識した食事ができる。土産購入と合わせやすい。",
    "address": "鹿児島県鹿児島市桜島横山町1722-48",
    "lat": 31.5927,
    "lng": 130.6013
  },
  {
    "name": "騎射場 のんかた居酒屋",
    "area": "鴨池・騎射場",
    "genre": "居酒屋",
    "description": "学生街・騎射場で焼酎と一品料理を楽しめる居酒屋系候補。地元感のある夜ごはんに向く。",
    "address": "鹿児島県鹿児島市荒田2丁目周辺",
    "lat": 31.5707,
    "lng": 130.5503
  },
  {
    "name": "騎射場 とり一番",
    "area": "鴨池・騎射場",
    "genre": "居酒屋",
    "description": "鶏料理や焼き鳥を中心に楽しめる騎射場エリアの候補。夜は3,000円台から使いやすい。",
    "address": "鹿児島県鹿児島市荒田2丁目周辺",
    "lat": 31.5706,
    "lng": 130.5502
  },
  {
    "name": "騎射場 Caffé Ordinario",
    "area": "鴨池・騎射場",
    "genre": "カフェ",
    "description": "荒田・騎射場周辺でランチやカフェ利用に向く店。学生街の落ち着いた休憩候補になる。",
    "address": "鹿児島県鹿児島市荒田2丁目周辺",
    "lat": 31.571,
    "lng": 130.5502
  },
  {
    "name": "茶房 茶尾",
    "area": "鴨池・騎射場",
    "genre": "カフェ",
    "description": "甘味や喫茶利用に向く騎射場周辺の店。観光中心部から少し外れて静かに休憩できる。",
    "address": "鹿児島県鹿児島市荒田周辺",
    "lat": 31.5714,
    "lng": 130.5506
  },
  {
    "name": "騎射場 南蛮",
    "area": "鴨池・騎射場",
    "genre": "その他",
    "description": "騎射場周辺で洋食・定食系を食べたい時の候補。地元学生街らしい普段使いの食事に向く。",
    "address": "鹿児島県鹿児島市荒田2丁目周辺",
    "lat": 31.5708,
    "lng": 130.5501
  },
  {
    "name": "鴨池食堂",
    "area": "鴨池・騎射場",
    "genre": "郷土料理",
    "description": "鴨池周辺で定食を食べたい時の候補。水族館や与次郎方面へ向かう途中の食事に使いやすい。",
    "address": "鹿児島県鹿児島市鴨池周辺",
    "lat": 31.5635,
    "lng": 130.5495
  },
  {
    "name": "カフェ チビチビ",
    "area": "鴨池・騎射場",
    "genre": "カフェ",
    "description": "騎射場駅近くで小休憩に使えるカフェ。コーヒーや軽食で、地元エリア散策の休憩に向く。",
    "address": "鹿児島県鹿児島市荒田2丁目周辺",
    "lat": 31.5707,
    "lng": 130.5504
  },
  {
    "name": "騎射場 焼肉厨房わきもと",
    "area": "鴨池・騎射場",
    "genre": "焼肉",
    "description": "騎射場周辺で焼肉を食べたい時の候補。鹿児島黒牛や肉系の夜ごはんとして提案しやすい。",
    "address": "鹿児島県鹿児島市荒田2丁目周辺",
    "lat": 31.5705,
    "lng": 130.5501
  }
]
