[
  {
    "name": "いちにいさん天文館店",
    "area": "天文館",
    "genre": "黒豚",
    "description": "六白黒豚のしゃぶしゃぶをそばつゆで味わう鹿児島らしい一軒。ランチは1,500円前後からで観光途中にも使いやすい。",
    "address": "鹿児島県鹿児島市東千石町11-6",
    "lat": 31.5891,
    "lng": 130.5522,
    "region": "鹿児島市中心部",
    "tags": [
      "グルメ",
      "黒豚",
      "鹿児島名物",
      "ランチ",
      "肉料理",
      "天文館"
    ],
    "durationMinutes": 60
  },
  {
    "name": "天文館むじゃき",
    "area": "天文館",
    "genre": "スイーツ",
    "description": "鹿児島名物の白熊発祥店として知られる甘味処。食事メニューもあり、白熊はレギュラーからミニまで選びやすい。",
    "address": "鹿児島県鹿児島市千日町5-8",
    "lat": 31.5878,
    "lng": 130.5518,
    "region": "鹿児島市中心部",
    "tags": [
      "グルメ",
      "スイーツ",
      "鹿児島名物",
      "休憩",
      "天文館"
    ],
    "durationMinutes": 45
  },
  {
    "name": "黒かつ亭 天文館店",
    "area": "天文館",
    "genre": "黒豚",
    "description": "黒豚とんかつを定食で楽しめる専門店。昼は1,500円前後から使いやすく、天文館散策中の食事に向く。ランチは1,500円前後から、鹿児島らしい肉料理を楽しめる。",
    "address": "鹿児島県鹿児島市山下町2-2",
    "lat": 31.5921,
    "lng": 130.5524,
    "region": "鹿児島市中心部",
    "tags": [
      "グルメ",
      "黒豚",
      "鹿児島名物",
      "ランチ",
      "肉料理",
      "天文館"
    ],
    "durationMinutes": 60
  },
  {
    "name": "吾愛人 天文館本店",
    "area": "天文館",
    "genre": "郷土料理",
    "description": "黒豚しゃぶしゃぶ、きびなご、さつま揚げなど鹿児島郷土料理をまとめて味わえる老舗。夜は焼酎と合わせたい。",
    "address": "鹿児島県鹿児島市東千石町9-14",
    "lat": 31.589,
    "lng": 130.5525,
    "region": "鹿児島市中心部",
    "tags": [
      "グルメ",
      "郷土料理",
      "鹿児島名物",
      "ディナー",
      "肉料理",
      "天文館"
    ],
    "durationMinutes": 90
  },
  {
    "name": "熊襲亭",
    "area": "天文館",
    "genre": "郷土料理",
    "description": "酒ずし、きびなご、黒豚など薩摩料理をコースでも単品でも楽しめる郷土料理店。観光客の初鹿児島ごはんに向く。",
    "address": "鹿児島県鹿児島市東千石町6-10",
    "lat": 31.5892,
    "lng": 130.552,
    "region": "鹿児島市中心部",
    "tags": [
      "グルメ",
      "郷土料理",
      "鹿児島名物",
      "ディナー",
      "肉料理",
      "天文館"
    ],
    "durationMinutes": 90
  },
  {
    "name": "こむらさき 天文館店",
    "area": "天文館",
    "genre": "ラーメン",
    "description": "キャベツ入りのあっさり鹿児島ラーメンで知られる老舗。昼食や飲んだ後の軽めの一杯に使いやすい。予算は1,000円前後で、短時間の昼食や締めにも使いやすい。",
    "address": "鹿児島県鹿児島市東千石町11-19",
    "lat": 31.5888,
    "lng": 130.5522,
    "region": "鹿児島市中心部",
    "tags": [
      "グルメ",
      "ラーメン",
      "ランチ",
      "短時間",
      "天文館"
    ],
    "durationMinutes": 45
  },
  {
    "name": "のり一",
    "area": "天文館",
    "genre": "ラーメン",
    "description": "天文館で昔ながらの鹿児島ラーメンを手頃に食べられる人気店。シンプルな一杯で締めにも昼食にも向く。予算は1,000円前後で、短時間の昼食や締めにも使いやすい。",
    "address": "鹿児島県鹿児島市山之口町9-3",
    "lat": 31.5872,
    "lng": 130.5528,
    "region": "鹿児島市中心部",
    "tags": [
      "グルメ",
      "ラーメン",
      "ランチ",
      "短時間",
      "天文館"
    ],
    "durationMinutes": 45
  },
  {
    "name": "豚とろ 天文館本店",
    "area": "天文館",
    "genre": "ラーメン",
    "description": "とろけるチャーシューが名物の鹿児島ラーメン店。観光客にも分かりやすい濃厚系で夜の食事にも便利。予算は1,000円前後で、短時間の昼食や締めにも使いやすい。",
    "address": "鹿児島県鹿児島市山之口町9-41",
    "lat": 31.5868,
    "lng": 130.5528,
    "region": "鹿児島市中心部",
    "tags": [
      "グルメ",
      "ラーメン",
      "ランチ",
      "ディナー",
      "短時間",
      "天文館"
    ],
    "durationMinutes": 45
  },
  {
    "name": "あぢもり",
    "area": "天文館",
    "genre": "黒豚",
    "description": "黒豚しゃぶしゃぶ発祥の店として知られる名店。夜はやや高めだが、鹿児島らしい食体験を重視する人向き。ランチは1,500円前後から、鹿児島らしい肉料理を楽しめる。",
    "address": "鹿児島県鹿児島市千日町13-21",
    "lat": 31.5876,
    "lng": 130.5519,
    "region": "鹿児島市中心部",
    "tags": [
      "グルメ",
      "黒豚",
      "鹿児島名物",
      "ランチ",
      "ディナー",
      "肉料理",
      "天文館"
    ],
    "durationMinutes": 90
  },
  {
    "name": "華蓮 鹿児島店",
    "area": "天文館",
    "genre": "黒豚",
    "description": "JA鹿児島県経済連系の店で、鹿児島黒牛・黒豚のしゃぶしゃぶやせいろ蒸しが看板。会食にも使いやすい。ランチは1,500円前後から、鹿児島らしい肉料理を楽しめる。",
    "address": "鹿児島県鹿児島市山之口町3-12",
    "lat": 31.5874,
    "lng": 130.5527,
    "region": "鹿児島市中心部",
    "tags": [
      "グルメ",
      "黒豚",
      "鹿児島名物",
      "ランチ",
      "肉料理",
      "天文館"
    ],
    "durationMinutes": 60
  },
  {
    "name": "薩摩味市場 極",
    "area": "天文館",
    "genre": "郷土料理",
    "description": "鹿児島の地魚、黒豚、焼酎を一度に楽しめる居酒屋。夜は4,000円前後から郷土料理を選びやすい。夜は3,000〜5,000円前後で、焼酎と合わせて楽しみやすい。",
    "address": "鹿児島県鹿児島市東千石町2-1",
    "lat": 31.5902,
    "lng": 130.5518,
    "region": "鹿児島市中心部",
    "tags": [
      "グルメ",
      "郷土料理",
      "鹿児島名物",
      "ディナー",
      "海鮮",
      "肉料理",
      "天文館"
    ],
    "durationMinutes": 90
  },
  {
    "name": "やぶ金 天文館店",
    "area": "桜島",
    "genre": "郷土料理",
    "description": "そば、うどん、丼ものを中心にした使いやすい食事処。桜島フェリー名物うどんの流れも感じられる。夜は3,000〜5,000円前後で、焼酎と合わせて楽しみやすい。",
    "address": "鹿児島県鹿児島市千日町8-15",
    "lat": 31.5875,
    "lng": 130.5514,
    "region": "鹿児島市郊外・桜島",
    "tags": [
      "グルメ",
      "郷土料理",
      "ディナー",
      "短時間",
      "鹿児島市郊外・桜島",
      "桜島"
    ],
    "durationMinutes": 45
  },
  {
    "name": "満正苑 天文館店",
    "area": "天文館",
    "genre": "その他",
    "description": "担々麺が人気の中華料理店。鹿児島グルメの合間に辛味のある麺を食べたい時に使いやすい。予算は1,000〜3,000円前後で、旅程に合わせて使いやすい。",
    "address": "鹿児島県鹿児島市東千石町11-15",
    "lat": 31.5887,
    "lng": 130.5521,
    "region": "鹿児島市中心部",
    "tags": [
      "グルメ",
      "その他",
      "天文館"
    ],
    "durationMinutes": 60
  },
  {
    "name": "めっけもん 天文館店",
    "area": "天文館",
    "genre": "海鮮",
    "description": "鹿児島の鮮魚を気軽に楽しめる回転寿司。地魚や旬のネタを中心に、昼夜どちらも使いやすい。昼は1,500円前後から、夜は焼酎と合わせても楽しめる。",
    "address": "鹿児島県鹿児島市千日町1-1",
    "lat": 31.5881,
    "lng": 130.5521,
    "region": "鹿児島市中心部",
    "tags": [
      "グルメ",
      "海鮮",
      "ランチ",
      "ディナー",
      "天文館"
    ],
    "durationMinutes": 90
  },
  {
    "name": "焼肉なべしま 天文館店",
    "area": "天文館",
    "genre": "その他",
    "description": "鹿児島発の焼肉チェーン。黒毛和牛や定食系も選びやすく、グループ旅行の夕食候補になる。予算は1,000〜3,000円前後で、旅程に合わせて使いやすい。",
    "address": "鹿児島県鹿児島市東千石町1-30",
    "lat": 31.5901,
    "lng": 130.5517,
    "region": "鹿児島市中心部",
    "tags": [
      "グルメ",
      "その他",
      "ランチ",
      "ディナー",
      "家族向け",
      "肉料理",
      "天文館"
    ],
    "durationMinutes": 90
  },
  {
    "name": "Blue Beans Roastery",
    "area": "天文館",
    "genre": "カフェ",
    "description": "自家焙煎コーヒーを楽しめる天文館のカフェ。観光の合間に一息つく用途で使いやすい。予算は1,000円前後からで、観光中の休憩にも向く。",
    "address": "鹿児島県鹿児島市東千石町8-22",
    "lat": 31.5893,
    "lng": 130.552,
    "region": "鹿児島市中心部",
    "tags": [
      "グルメ",
      "カフェ",
      "休憩",
      "天文館"
    ],
    "durationMinutes": 45
  },
  {
    "name": "マルヤガーデンズ レストランフロア",
    "area": "天文館",
    "genre": "その他",
    "description": "天文館の商業施設内にある飲食フロア。買い物や雨の日の休憩と合わせて食事先を選びやすい。予算は1,000〜3,000円前後で、旅程に合わせて使いやすい。",
    "address": "鹿児島県鹿児島市呉服町6-5",
    "lat": 31.588,
    "lng": 130.5535,
    "region": "鹿児島市中心部",
    "tags": [
      "グルメ",
      "その他",
      "家族向け",
      "休憩",
      "天文館"
    ],
    "durationMinutes": 60
  },
  {
    "name": "山形屋食堂",
    "area": "天文館",
    "genre": "郷土料理",
    "description": "鹿児島の老舗百貨店内にある名物食堂。焼きそばなど昔ながらのメニューもあり、買い物途中に便利。夜は3,000〜5,000円前後で、焼酎と合わせて楽しみやすい。",
    "address": "鹿児島県鹿児島市金生町3-1",
    "lat": 31.5916,
    "lng": 130.5571,
    "region": "鹿児島市中心部",
    "tags": [
      "グルメ",
      "郷土料理",
      "ランチ",
      "ディナー",
      "天文館"
    ],
    "durationMinutes": 90
  },
  {
    "name": "ラーメン小金太",
    "area": "天文館",
    "genre": "ラーメン",
    "description": "天文館で人気の鹿児島ラーメン店。ラーメンは千円前後で、飲んだ後の締めにも昼食にも使える。予算は1,000円前後で、短時間の昼食や締めにも使いやすい。",
    "address": "鹿児島県鹿児島市樋之口町11-5",
    "lat": 31.5863,
    "lng": 130.5522,
    "region": "鹿児島市中心部",
    "tags": [
      "グルメ",
      "ラーメン",
      "ランチ",
      "短時間",
      "天文館"
    ],
    "durationMinutes": 45
  },
  {
    "name": "鹿児島ラーメン我流風 天文館本店",
    "area": "天文館",
    "genre": "ラーメン",
    "description": "鹿児島ラーメンを分かりやすく楽しめる天文館の店。観光中に短時間で食べたい時に向く。予算は1,000円前後で、短時間の昼食や締めにも使いやすい。",
    "address": "鹿児島県鹿児島市東千石町14-3",
    "lat": 31.589,
    "lng": 130.5531,
    "region": "鹿児島市中心部",
    "tags": [
      "グルメ",
      "ラーメン",
      "ランチ",
      "短時間",
      "天文館"
    ],
    "durationMinutes": 45
  },
  {
    "name": "味のとんかつ丸一",
    "area": "天文館",
    "genre": "黒豚",
    "description": "厚切りとんかつで知られる天文館近くの人気店。昼は行列もあるが、肉系ランチを狙うなら候補。ランチは1,500円前後から、鹿児島らしい肉料理を楽しめる。",
    "address": "鹿児島県鹿児島市山之口町1-10",
    "lat": 31.5881,
    "lng": 130.5515,
    "region": "鹿児島市中心部",
    "tags": [
      "グルメ",
      "黒豚",
      "鹿児島名物",
      "ランチ",
      "肉料理",
      "天文館"
    ],
    "durationMinutes": 60
  },
  {
    "name": "黒福多",
    "area": "天文館",
    "genre": "黒豚",
    "description": "黒豚とんかつや黒豚料理を楽しめる天文館の店。観光客にも分かりやすい鹿児島肉料理の選択肢。ランチは1,500円前後から、鹿児島らしい肉料理を楽しめる。",
    "address": "鹿児島県鹿児島市千日町3-2",
    "lat": 31.5879,
    "lng": 130.552,
    "region": "鹿児島市中心部",
    "tags": [
      "グルメ",
      "黒豚",
      "鹿児島名物",
      "ランチ",
      "肉料理",
      "天文館"
    ],
    "durationMinutes": 60
  },
  {
    "name": "さつま路",
    "area": "天文館",
    "genre": "郷土料理",
    "description": "きびなご、さつま揚げ、黒豚など薩摩料理を落ち着いて味わえる店。夜の郷土料理候補に向く。夜は3,000〜5,000円前後で、焼酎と合わせて楽しみやすい。",
    "address": "鹿児島県鹿児島市東千石町6-29",
    "lat": 31.5892,
    "lng": 130.552,
    "region": "鹿児島市中心部",
    "tags": [
      "グルメ",
      "郷土料理",
      "鹿児島名物",
      "ディナー",
      "肉料理",
      "天文館"
    ],
    "durationMinutes": 90
  },
  {
    "name": "酒肴 ゆぐち",
    "area": "天文館",
    "genre": "居酒屋",
    "description": "地魚と鹿児島焼酎を合わせやすい居酒屋。夜は4,000円前後から、観光客にも入りやすい雰囲気。夜は3,000〜4,000円前後で、焼酎と一緒に楽しみやすい。",
    "address": "鹿児島県鹿児島市山之口町12-37",
    "lat": 31.5872,
    "lng": 130.553,
    "region": "鹿児島市中心部",
    "tags": [
      "グルメ",
      "居酒屋",
      "ディナー",
      "海鮮",
      "天文館"
    ],
    "durationMinutes": 90
  },
  {
    "name": "みやま本舗 天文館店",
    "area": "天文館",
    "genre": "郷土料理",
    "description": "鶏刺しや炭火焼など鹿児島の鶏料理を楽しめる店。焼酎と合わせた夜ごはんに使いやすい。夜は3,000〜5,000円前後で、焼酎と合わせて楽しみやすい。",
    "address": "鹿児島県鹿児島市千日町13-25",
    "lat": 31.5874,
    "lng": 130.5519,
    "region": "鹿児島市中心部",
    "tags": [
      "グルメ",
      "郷土料理",
      "ディナー",
      "天文館"
    ],
    "durationMinutes": 90
  },
  {
    "name": "かごっまふるさと屋台村 バスチカ",
    "area": "中央駅",
    "genre": "郷土料理",
    "description": "鹿児島中央駅近くで複数店舗をはしごできる屋台村。郷土料理や焼酎を少量ずつ楽しみたい人向き。夜は3,000〜5,000円前後で、焼酎と合わせて楽しみやすい。",
    "address": "鹿児島県鹿児島市中央町11",
    "lat": 31.5842,
    "lng": 130.5423,
    "region": "鹿児島市中心部",
    "tags": [
      "グルメ",
      "郷土料理",
      "ディナー",
      "短時間",
      "中央駅"
    ],
    "durationMinutes": 45
  },
  {
    "name": "ざぼんラーメン 鹿児島中央駅店",
    "area": "中央駅",
    "genre": "ラーメン",
    "description": "鹿児島中央駅近くで食べられる定番鹿児島ラーメン。移動前後の短時間ランチに便利。予算は1,000円前後で、短時間の昼食や締めにも使いやすい。",
    "address": "鹿児島県鹿児島市中央町1-1",
    "lat": 31.5838,
    "lng": 130.5415,
    "region": "鹿児島市中心部",
    "tags": [
      "グルメ",
      "ラーメン",
      "ランチ",
      "短時間",
      "中央駅"
    ],
    "durationMinutes": 45
  },
  {
    "name": "黒かつ亭 中央駅本店",
    "area": "中央駅",
    "genre": "黒豚",
    "description": "中央駅周辺で黒豚とんかつを食べたい時の定番。ランチ定食は1,500円前後から選びやすい。ランチは1,500円前後から、鹿児島らしい肉料理を楽しめる。",
    "address": "鹿児島県鹿児島市中央町16-9",
    "lat": 31.5835,
    "lng": 130.543,
    "region": "鹿児島市中心部",
    "tags": [
      "グルメ",
      "黒豚",
      "鹿児島名物",
      "ランチ",
      "短時間",
      "肉料理",
      "中央駅"
    ],
    "durationMinutes": 45
  },
  {
    "name": "いちにいさん アミュプラザ鹿児島店",
    "area": "中央駅",
    "genre": "黒豚",
    "description": "駅ビル内で六白黒豚しゃぶしゃぶや蒸し料理を楽しめる。列車移動前後の鹿児島グルメに便利。ランチは1,500円前後から、鹿児島らしい肉料理を楽しめる。",
    "address": "鹿児島県鹿児島市中央町1-1",
    "lat": 31.5838,
    "lng": 130.5415,
    "region": "鹿児島市中心部",
    "tags": [
      "グルメ",
      "黒豚",
      "鹿児島名物",
      "ランチ",
      "短時間",
      "肉料理",
      "中央駅"
    ],
    "durationMinutes": 45
  },
  {
    "name": "廻る寿司めっけもん アミュプラザ鹿児島店",
    "area": "中央駅",
    "genre": "海鮮",
    "description": "駅直結で鹿児島の魚を気軽に楽しめる回転寿司。地魚や旬ネタを短時間で食べたい時に向く。昼は1,500円前後から、夜は焼酎と合わせても楽しめる。",
    "address": "鹿児島県鹿児島市中央町1-1",
    "lat": 31.5838,
    "lng": 130.5415,
    "region": "鹿児島市中心部",
    "tags": [
      "グルメ",
      "海鮮",
      "ランチ",
      "ディナー",
      "短時間",
      "中央駅"
    ],
    "durationMinutes": 45
  },
  {
    "name": "とんかつ川久",
    "area": "中央駅",
    "genre": "黒豚",
    "description": "鹿児島中央駅近くのとんかつ人気店。黒豚ロースやヒレをしっかり食べたいランチに向く。ランチは1,500円前後から、鹿児島らしい肉料理を楽しめる。",
    "address": "鹿児島県鹿児島市中央町21-13",
    "lat": 31.5828,
    "lng": 130.543,
    "region": "鹿児島市中心部",
    "tags": [
      "グルメ",
      "黒豚",
      "鹿児島名物",
      "ランチ",
      "短時間",
      "肉料理",
      "中央駅"
    ],
    "durationMinutes": 45
  },
  {
    "name": "薩摩蒸氣屋 鹿児島中央駅店",
    "area": "中央駅",
    "genre": "スイーツ",
    "description": "かすたどん、かるかんなど鹿児島土産の定番を買える。甘いもの休憩や手土産探しに便利。予算は1,000円前後からで、土産や休憩にも使いやすい。",
    "address": "鹿児島県鹿児島市中央町1-1",
    "lat": 31.5838,
    "lng": 130.5415,
    "region": "鹿児島市中心部",
    "tags": [
      "グルメ",
      "スイーツ",
      "短時間",
      "休憩",
      "中央駅"
    ],
    "durationMinutes": 45
  },
  {
    "name": "黒豚料理 寿庵 中央駅西口店",
    "area": "鹿児島市内",
    "genre": "黒豚",
    "description": "黒豚しゃぶしゃぶやとんかつを中央駅西口近くで楽しめる。昼夜とも鹿児島肉料理の候補になる。ランチは1,500円前後から、鹿児島らしい肉料理を楽しめる。",
    "address": "鹿児島県鹿児島市武1丁目3-1",
    "lat": 31.5835,
    "lng": 130.5395,
    "region": "鹿児島市中心部",
    "tags": [
      "グルメ",
      "黒豚",
      "鹿児島名物",
      "ランチ",
      "ディナー",
      "短時間",
      "肉料理",
      "鹿児島市内"
    ],
    "durationMinutes": 45
  },
  {
    "name": "かごしま黒豚 六白亭",
    "area": "鹿児島市内",
    "genre": "黒豚",
    "description": "黒豚しゃぶしゃぶや黒豚料理を中央駅近くで味わえる店。観光初日の夕食にも使いやすい。ランチは1,500円前後から、鹿児島らしい肉料理を楽しめる。",
    "address": "鹿児島県鹿児島市西田2丁目12-34",
    "lat": 31.585,
    "lng": 130.5404,
    "region": "鹿児島市中心部",
    "tags": [
      "グルメ",
      "黒豚",
      "鹿児島名物",
      "ランチ",
      "ディナー",
      "短時間",
      "肉料理",
      "鹿児島市内"
    ],
    "durationMinutes": 45
  },
  {
    "name": "吾愛人 中央駅西口店",
    "area": "鹿児島市内",
    "genre": "郷土料理",
    "description": "中央駅近くで郷土料理をまとめて食べられる支店。黒豚、きびなご、焼酎を合わせやすい。夜は3,000〜5,000円前後で、焼酎と合わせて楽しみやすい。",
    "address": "鹿児島県鹿児島市西田2丁目21-21",
    "lat": 31.5847,
    "lng": 130.5401,
    "region": "鹿児島市中心部",
    "tags": [
      "グルメ",
      "郷土料理",
      "鹿児島名物",
      "ディナー",
      "短時間",
      "肉料理",
      "鹿児島市内"
    ],
    "durationMinutes": 45
  },
  {
    "name": "豚とろ 鹿児島中央駅前店",
    "area": "中央駅",
    "genre": "ラーメン",
    "description": "駅前でとろけるチャーシューの鹿児島ラーメンを食べられる。移動前後の一杯に便利。予算は1,000円前後で、短時間の昼食や締めにも使いやすい。",
    "address": "鹿児島県鹿児島市中央町3-3",
    "lat": 31.5844,
    "lng": 130.5422,
    "region": "鹿児島市中心部",
    "tags": [
      "グルメ",
      "ラーメン",
      "ランチ",
      "短時間",
      "中央駅"
    ],
    "durationMinutes": 45
  },
  {
    "name": "城山ホテル鹿児島 水簾",
    "area": "城山",
    "genre": "郷土料理",
    "description": "城山ホテル内の和食店。黒豚や会席を落ち着いて楽しめ、展望や温泉と合わせた食事に向く。夜は3,000〜5,000円前後で、焼酎と合わせて楽しみやすい。",
    "address": "鹿児島県鹿児島市新照院町41-1",
    "lat": 31.5952,
    "lng": 130.5445,
    "region": "鹿児島市中心部",
    "tags": [
      "グルメ",
      "郷土料理",
      "鹿児島名物",
      "ディナー",
      "肉料理",
      "城山"
    ],
    "durationMinutes": 90
  },
  {
    "name": "城山ホテル鹿児島 ホルト",
    "area": "桜島",
    "genre": "その他",
    "description": "ホテル内の洋食レストラン。桜島を望む滞在と合わせて、ランチやディナーをゆっくり取れる。予算は1,000〜3,000円前後で、旅程に合わせて使いやすい。",
    "address": "鹿児島県鹿児島市新照院町41-1",
    "lat": 31.5952,
    "lng": 130.5445,
    "region": "鹿児島市郊外・桜島",
    "tags": [
      "グルメ",
      "その他",
      "ランチ",
      "鹿児島市郊外・桜島",
      "桜島"
    ],
    "durationMinutes": 60
  },
  {
    "name": "城山ホテル鹿児島 カサブランカ",
    "area": "桜島",
    "genre": "カフェ",
    "description": "桜島を望むホテルラウンジ。ケーキやドリンクで、城山観光の休憩に使いやすい。予算は1,000円前後からで、観光中の休憩にも向く。",
    "address": "鹿児島県鹿児島市新照院町41-1",
    "lat": 31.5952,
    "lng": 130.5445,
    "region": "鹿児島市郊外・桜島",
    "tags": [
      "グルメ",
      "カフェ",
      "休憩",
      "鹿児島市郊外・桜島",
      "桜島"
    ],
    "durationMinutes": 45
  },
  {
    "name": "城山ホテル鹿児島 城山ガーデンズ",
    "area": "城山",
    "genre": "その他",
    "description": "ホテル内のカジュアルな食事処。家族連れやグループで、幅広いメニューを選びたい時に便利。予算は1,000〜3,000円前後で、旅程に合わせて使いやすい。",
    "address": "鹿児島県鹿児島市新照院町41-1",
    "lat": 31.5952,
    "lng": 130.5445,
    "region": "鹿児島市中心部",
    "tags": [
      "グルメ",
      "その他",
      "家族向け",
      "城山"
    ],
    "durationMinutes": 60
  },
  {
    "name": "城山ブルワリー",
    "area": "城山",
    "genre": "その他",
    "description": "城山ホテル内のクラフトビール拠点。鹿児島素材を使ったビールを軽食と一緒に楽しめる。予算は1,000〜3,000円前後で、旅程に合わせて使いやすい。",
    "address": "鹿児島県鹿児島市新照院町41-1",
    "lat": 31.5952,
    "lng": 130.5445,
    "region": "鹿児島市中心部",
    "tags": [
      "グルメ",
      "その他",
      "城山"
    ],
    "durationMinutes": 60
  },
  {
    "name": "仙巌園 両棒餅屋",
    "area": "吉野・磯",
    "genre": "スイーツ",
    "description": "仙巌園名物の両棒餅を味わえる甘味処。観光の合間に鹿児島らしい素朴なおやつを楽しめる。予算は1,000円前後からで、土産や休憩にも使いやすい。",
    "address": "鹿児島県鹿児島市吉野町9700-1",
    "lat": 31.6179,
    "lng": 130.5787,
    "region": "鹿児島市郊外・桜島",
    "tags": [
      "グルメ",
      "スイーツ",
      "休憩",
      "鹿児島市郊外・桜島",
      "吉野・磯"
    ],
    "durationMinutes": 45
  },
  {
    "name": "仙巌園 桜華亭",
    "area": "桜島",
    "genre": "郷土料理",
    "description": "仙巌園内で郷土料理を楽しめる食事処。桜島を望む磯観光と合わせて昼食に使いやすい。夜は3,000〜5,000円前後で、焼酎と合わせて楽しみやすい。",
    "address": "鹿児島県鹿児島市吉野町9700-1",
    "lat": 31.6179,
    "lng": 130.5787,
    "region": "鹿児島市郊外・桜島",
    "tags": [
      "グルメ",
      "郷土料理",
      "ランチ",
      "ディナー",
      "鹿児島市郊外・桜島",
      "桜島"
    ],
    "durationMinutes": 90
  },
  {
    "name": "ぢゃんぼ餅 平田屋",
    "area": "吉野・磯",
    "genre": "スイーツ",
    "description": "磯名物ぢゃんぼ餅の老舗。砂糖醤油だれの素朴な甘じょっぱさで、仙巌園周辺の休憩に最適。予算は1,000円前後からで、土産や休憩にも使いやすい。",
    "address": "鹿児島県鹿児島市吉野町9673",
    "lat": 31.6171,
    "lng": 130.5776,
    "region": "鹿児島市郊外・桜島",
    "tags": [
      "グルメ",
      "スイーツ",
      "休憩",
      "鹿児島市郊外・桜島",
      "吉野・磯"
    ],
    "durationMinutes": 45
  },
  {
    "name": "ぢゃんぼ餅 中川家",
    "area": "吉野・磯",
    "genre": "スイーツ",
    "description": "磯海岸近くでぢゃんぼ餅を味わえる店。仙巌園や尚古集成館の前後に立ち寄りやすい。予算は1,000円前後からで、土産や休憩にも使いやすい。",
    "address": "鹿児島県鹿児島市吉野町9673",
    "lat": 31.617,
    "lng": 130.5778,
    "region": "鹿児島市郊外・桜島",
    "tags": [
      "グルメ",
      "スイーツ",
      "休憩",
      "鹿児島市郊外・桜島",
      "吉野・磯"
    ],
    "durationMinutes": 45
  },
  {
    "name": "スターバックス コーヒー 鹿児島仙巌園店",
    "area": "桜島",
    "genre": "カフェ",
    "description": "登録有形文化財を活用した店舗。磯エリアで桜島を感じながらコーヒー休憩ができる。予算は1,000円前後からで、観光中の休憩にも向く。",
    "address": "鹿児島県鹿児島市吉野町9688-1",
    "lat": 31.6175,
    "lng": 130.5778,
    "region": "鹿児島市郊外・桜島",
    "tags": [
      "グルメ",
      "カフェ",
      "休憩",
      "鹿児島市郊外・桜島",
      "桜島"
    ],
    "durationMinutes": 45
  },
  {
    "name": "国民宿舎レインボー桜島 レストラン",
    "area": "桜島",
    "genre": "郷土料理",
    "description": "桜島港近くで食事と温泉を合わせやすい施設。桜島小みかんや地元食材のメニューを狙える。夜は3,000〜5,000円前後で、焼酎と合わせて楽しみやすい。",
    "address": "鹿児島県鹿児島市桜島横山町1722-16",
    "lat": 31.5931,
    "lng": 130.5994,
    "region": "鹿児島市郊外・桜島",
    "tags": [
      "グルメ",
      "郷土料理",
      "ディナー",
      "家族向け",
      "鹿児島市郊外・桜島",
      "桜島"
    ],
    "durationMinutes": 90
  },
  {
    "name": "道の駅桜島 火の島めぐみ館",
    "area": "桜島",
    "genre": "郷土料理",
    "description": "桜島小みかんや地元産品を扱う道の駅。軽食や土産探しを桜島観光と合わせやすい。夜は3,000〜5,000円前後で、焼酎と合わせて楽しみやすい。",
    "address": "鹿児島県鹿児島市桜島横山町1722-48",
    "lat": 31.5927,
    "lng": 130.6013,
    "region": "鹿児島市郊外・桜島",
    "tags": [
      "グルメ",
      "郷土料理",
      "ディナー",
      "家族向け",
      "短時間",
      "鹿児島市郊外・桜島",
      "桜島"
    ],
    "durationMinutes": 45
  },
  {
    "name": "桜島フェリー やぶ金",
    "area": "桜島",
    "genre": "その他",
    "description": "桜島フェリー名物のうどんを船内で味わえる。短い乗船時間で食べる体験自体が観光になる。予算は1,000〜3,000円前後で、旅程に合わせて使いやすい。",
    "address": "鹿児島県鹿児島市本港新町4-1",
    "lat": 31.5969,
    "lng": 130.5634,
    "region": "鹿児島市郊外・桜島",
    "tags": [
      "グルメ",
      "その他",
      "短時間",
      "鹿児島市郊外・桜島",
      "桜島"
    ],
    "durationMinutes": 45
  },
  {
    "name": "MINATO CAFE",
    "area": "桜島",
    "genre": "カフェ",
    "description": "桜島港周辺で休憩しやすいカフェ。フェリー待ちや溶岩なぎさ公園散策後に立ち寄りやすい。予算は1,000円前後からで、観光中の休憩にも向く。",
    "address": "鹿児島県鹿児島市桜島横山町",
    "lat": 31.593,
    "lng": 130.6001,
    "region": "鹿児島市郊外・桜島",
    "tags": [
      "グルメ",
      "カフェ",
      "短時間",
      "休憩",
      "鹿児島市郊外・桜島",
      "桜島"
    ],
    "durationMinutes": 45
  },
  {
    "name": "とんかつ竹亭 谷山店",
    "area": "谷山",
    "genre": "黒豚",
    "description": "谷山で人気のとんかつ店。ボリュームのある定食を比較的手頃に楽しめ、車移動時に便利。ランチは1,500円前後から、鹿児島らしい肉料理を楽しめる。",
    "address": "鹿児島県鹿児島市上福元町5723-8",
    "lat": 31.5294,
    "lng": 130.5133,
    "region": "鹿児島市郊外・桜島",
    "tags": [
      "グルメ",
      "黒豚",
      "鹿児島名物",
      "ランチ",
      "肉料理",
      "鹿児島市郊外・桜島",
      "谷山"
    ],
    "durationMinutes": 60
  },
  {
    "name": "焼肉なべしま 与次郎本店",
    "area": "与次郎",
    "genre": "その他",
    "description": "与次郎エリアの焼肉店。鹿児島発チェーンらしく肉系の夕食をグループで取りやすい。予算は1,000〜3,000円前後で、旅程に合わせて使いやすい。",
    "address": "鹿児島県鹿児島市与次郎1丁目9-53",
    "lat": 31.5667,
    "lng": 130.5603,
    "region": "鹿児島市中心部",
    "tags": [
      "グルメ",
      "その他",
      "ディナー",
      "家族向け",
      "肉料理",
      "与次郎"
    ],
    "durationMinutes": 90
  },
  {
    "name": "ふく福 与次郎店",
    "area": "与次郎",
    "genre": "郷土料理",
    "description": "そば、和食、丼ものを幅広く選べる店。与次郎の買い物や水族館方面の移動時に使いやすい。夜は3,000〜5,000円前後で、焼酎と合わせて楽しみやすい。",
    "address": "鹿児島県鹿児島市与次郎1丁目11-1",
    "lat": 31.5636,
    "lng": 130.5599,
    "region": "鹿児島市中心部",
    "tags": [
      "グルメ",
      "郷土料理",
      "ディナー",
      "与次郎"
    ],
    "durationMinutes": 90
  },
  {
    "name": "寿司まどか 慈眼寺店",
    "area": "谷山",
    "genre": "海鮮",
    "description": "谷山方面で寿司を気軽に食べられる回転寿司。家族連れや車移動の食事候補に向く。昼は1,500円前後から、夜は焼酎と合わせても楽しめる。",
    "address": "鹿児島県鹿児島市谷山中央5丁目10-14",
    "lat": 31.5222,
    "lng": 130.5161,
    "region": "鹿児島市郊外・桜島",
    "tags": [
      "グルメ",
      "海鮮",
      "ランチ",
      "ディナー",
      "家族向け",
      "鹿児島市郊外・桜島",
      "谷山"
    ],
    "durationMinutes": 90
  },
  {
    "name": "そば茶屋 吹上庵 平川店",
    "area": "谷山",
    "genre": "郷土料理",
    "description": "鹿児島で親しまれるそば茶屋。平川動物公園方面の移動時に、そばや定食を取りやすい。夜は3,000〜5,000円前後で、焼酎と合わせて楽しみやすい。",
    "address": "鹿児島県鹿児島市平川町5047-1",
    "lat": 31.4671,
    "lng": 130.5042,
    "region": "鹿児島市郊外・桜島",
    "tags": [
      "グルメ",
      "郷土料理",
      "ランチ",
      "ディナー",
      "鹿児島市郊外・桜島",
      "谷山"
    ],
    "durationMinutes": 90
  },
  {
    "name": "薩摩蒸氣屋 菓々子横丁",
    "area": "天文館",
    "genre": "スイーツ",
    "description": "かるかん、かすたどん、焼きどうなつを楽しめる菓子店。天文館散策中の休憩や土産探しに便利。予算は1,000円前後からで、土産や休憩にも使いやすい。",
    "address": "鹿児島県鹿児島市東千石町13-14",
    "lat": 31.5889,
    "lng": 130.5529,
    "region": "鹿児島市中心部",
    "tags": [
      "グルメ",
      "スイーツ",
      "休憩",
      "天文館"
    ],
    "durationMinutes": 45
  },
  {
    "name": "カフェ彼女の家 天文館店",
    "area": "天文館",
    "genre": "カフェ",
    "description": "天文館で長く親しまれるカフェ。黄熊など白熊系スイーツや食事を楽しめ、休憩に使いやすい。予算は1,000円前後からで、観光中の休憩にも向く。",
    "address": "鹿児島県鹿児島市東千石町8-18",
    "lat": 31.5893,
    "lng": 130.5522,
    "region": "鹿児島市中心部",
    "tags": [
      "グルメ",
      "カフェ",
      "鹿児島名物",
      "休憩",
      "天文館"
    ],
    "durationMinutes": 45
  },
  {
    "name": "CHIN JUKAN POTTERY 喫茶室",
    "area": "天文館",
    "genre": "カフェ",
    "description": "薩摩焼の器でドリンクや甘味を楽しめる喫茶室。鹿児島らしい器文化も感じられる。予算は1,000円前後からで、観光中の休憩にも向く。",
    "address": "鹿児島県鹿児島市東千石町",
    "lat": 31.589,
    "lng": 130.5525,
    "region": "鹿児島市中心部",
    "tags": [
      "グルメ",
      "カフェ",
      "休憩",
      "天文館"
    ],
    "durationMinutes": 45
  },
  {
    "name": "ライムライト",
    "area": "天文館",
    "genre": "カフェ",
    "description": "天文館の老舗喫茶として知られる店。コーヒーと軽食で、街歩きの休憩に使いやすい。予算は1,000円前後からで、観光中の休憩にも向く。",
    "address": "鹿児島県鹿児島市東千石町",
    "lat": 31.5891,
    "lng": 130.5523,
    "region": "鹿児島市中心部",
    "tags": [
      "グルメ",
      "カフェ",
      "休憩",
      "天文館"
    ],
    "durationMinutes": 45
  },
  {
    "name": "ノギノダイナー",
    "area": "天文館",
    "genre": "カフェ",
    "description": "ハンバーガーやカフェメニューを楽しめる店。黒豚や郷土料理以外を食べたい時の選択肢。予算は1,000円前後からで、観光中の休憩にも向く。",
    "address": "鹿児島県鹿児島市東千石町",
    "lat": 31.589,
    "lng": 130.552,
    "region": "鹿児島市中心部",
    "tags": [
      "グルメ",
      "カフェ",
      "鹿児島名物",
      "休憩",
      "肉料理",
      "天文館"
    ],
    "durationMinutes": 45
  },
  {
    "name": "addCoffee アミュプラザ鹿児島店",
    "area": "中央駅",
    "genre": "カフェ",
    "description": "鹿児島中央駅直結で使いやすいカフェ。列車待ちや買い物途中にコーヒー休憩ができる。予算は1,000円前後からで、観光中の休憩にも向く。",
    "address": "鹿児島県鹿児島市中央町1-1",
    "lat": 31.5838,
    "lng": 130.5415,
    "region": "鹿児島市中心部",
    "tags": [
      "グルメ",
      "カフェ",
      "短時間",
      "休憩",
      "中央駅"
    ],
    "durationMinutes": 45
  },
  {
    "name": "Andenken アミュプラザ鹿児島店",
    "area": "中央駅",
    "genre": "スイーツ",
    "description": "バウムクーヘンなど洋菓子を買える駅ビル内店舗。手土産や甘い休憩に使いやすい。予算は1,000円前後からで、土産や休憩にも使いやすい。",
    "address": "鹿児島県鹿児島市中央町1-1",
    "lat": 31.5838,
    "lng": 130.5415,
    "region": "鹿児島市中心部",
    "tags": [
      "グルメ",
      "スイーツ",
      "短時間",
      "休憩",
      "中央駅"
    ],
    "durationMinutes": 45
  },
  {
    "name": "PRONTO 鹿児島中央駅西口店",
    "area": "中央駅",
    "genre": "カフェ",
    "description": "中央駅西口で朝から夜まで使いやすいカフェ。軽食や待ち合わせ、作業にも向く。予算は1,000円前後からで、観光中の休憩にも向く。",
    "address": "鹿児島県鹿児島市武1丁目1-2",
    "lat": 31.5836,
    "lng": 130.5401,
    "region": "鹿児島市中心部",
    "tags": [
      "グルメ",
      "カフェ",
      "ディナー",
      "短時間",
      "休憩",
      "中央駅"
    ],
    "durationMinutes": 45
  },
  {
    "name": "魚庄",
    "area": "天文館",
    "genre": "海鮮",
    "description": "鹿児島の地魚や刺身を楽しめる海鮮居酒屋。夜は焼酎と一緒に魚料理を食べたい時に向く。昼は1,500円前後から、夜は焼酎と合わせても楽しめる。",
    "address": "鹿児島県鹿児島市山之口町",
    "lat": 31.5873,
    "lng": 130.5527,
    "region": "鹿児島市中心部",
    "tags": [
      "グルメ",
      "海鮮",
      "ランチ",
      "ディナー",
      "天文館"
    ],
    "durationMinutes": 90
  },
  {
    "name": "市場食堂 城南店",
    "area": "鹿児島市内",
    "genre": "海鮮",
    "description": "市場近くで海鮮丼や刺身定食を食べられる店。朝昼に魚をしっかり食べたい人向き。昼は1,500円前後から、夜は焼酎と合わせても楽しめる。",
    "address": "鹿児島県鹿児島市城南町",
    "lat": 31.5806,
    "lng": 130.5613,
    "region": "鹿児島市中心部",
    "tags": [
      "グルメ",
      "海鮮",
      "ランチ",
      "ディナー",
      "鹿児島市内"
    ],
    "durationMinutes": 90
  },
  {
    "name": "海鮮料理 こんぴら丸 谷山本店",
    "area": "谷山",
    "genre": "海鮮",
    "description": "刺身定食や海鮮丼を楽しめる谷山の海鮮店。昼は1,500円前後から魚系ランチを選びやすい。昼は1,500円前後から、夜は焼酎と合わせても楽しめる。",
    "address": "鹿児島県鹿児島市南栄5丁目10-1",
    "lat": 31.5113,
    "lng": 130.5179,
    "region": "鹿児島市郊外・桜島",
    "tags": [
      "グルメ",
      "海鮮",
      "ランチ",
      "ディナー",
      "鹿児島市郊外・桜島",
      "谷山"
    ],
    "durationMinutes": 90
  },
  {
    "name": "うなぎの末よし",
    "area": "天文館",
    "genre": "その他",
    "description": "鹿児島で親しまれるうなぎ料理店。ランチはやや高めだが、鹿児島産うなぎを味わいたい時に向く。予算は1,000〜3,000円前後で、旅程に合わせて使いやすい。",
    "address": "鹿児島県鹿児島市東千石町14-10",
    "lat": 31.5889,
    "lng": 130.553,
    "region": "鹿児島市中心部",
    "tags": [
      "グルメ",
      "その他",
      "ランチ",
      "天文館"
    ],
    "durationMinutes": 60
  },
  {
    "name": "炉ばた割烹 一心",
    "area": "天文館",
    "genre": "居酒屋",
    "description": "魚介や炉端料理を焼酎と楽しめる割烹居酒屋。観光客にも鹿児島の夜ごはんとして提案しやすい。夜は3,000〜4,000円前後で、焼酎と一緒に楽しみやすい。",
    "address": "鹿児島県鹿児島市山之口町",
    "lat": 31.5872,
    "lng": 130.5527,
    "region": "鹿児島市中心部",
    "tags": [
      "グルメ",
      "居酒屋",
      "ディナー",
      "海鮮",
      "天文館"
    ],
    "durationMinutes": 90
  },
  {
    "name": "炭火神吉",
    "area": "天文館",
    "genre": "居酒屋",
    "description": "炭火焼きと焼酎を楽しめる居酒屋。黒豚や鶏料理以外の鹿児島の夜の選択肢になる。夜は3,000〜4,000円前後で、焼酎と一緒に楽しみやすい。",
    "address": "鹿児島県鹿児島市山之口町",
    "lat": 31.5871,
    "lng": 130.5526,
    "region": "鹿児島市中心部",
    "tags": [
      "グルメ",
      "居酒屋",
      "鹿児島名物",
      "ディナー",
      "肉料理",
      "天文館"
    ],
    "durationMinutes": 90
  },
  {
    "name": "とり翔",
    "area": "中央駅",
    "genre": "居酒屋",
    "description": "鶏料理と焼酎を合わせやすい中央駅周辺の居酒屋。夜は3,000円台から使いやすい。夜は3,000〜4,000円前後で、焼酎と一緒に楽しみやすい。",
    "address": "鹿児島県鹿児島市中央町",
    "lat": 31.5841,
    "lng": 130.5425,
    "region": "鹿児島市中心部",
    "tags": [
      "グルメ",
      "居酒屋",
      "ディナー",
      "短時間",
      "中央駅"
    ],
    "durationMinutes": 45
  },
  {
    "name": "焼肉ヨコムラ 小松原本店",
    "area": "谷山",
    "genre": "焼肉",
    "description": "谷山方面で鹿児島黒牛や焼肉を楽しめる店。車移動の夕食や家族利用に向く。夜は4,000円前後から、グループで肉料理を食べたい時に向く。",
    "address": "鹿児島県鹿児島市小松原1丁目43-19",
    "lat": 31.5313,
    "lng": 130.5286,
    "region": "鹿児島市郊外・桜島",
    "tags": [
      "グルメ",
      "焼肉",
      "鹿児島名物",
      "ディナー",
      "家族向け",
      "肉料理",
      "鹿児島市郊外・桜島",
      "谷山"
    ],
    "durationMinutes": 90
  },
  {
    "name": "肉のヨコムラ",
    "area": "谷山",
    "genre": "焼肉",
    "description": "谷山で肉料理を楽しめる地元店。焼肉や定食系のしっかりした食事を取りたい時に便利。夜は4,000円前後から、グループで肉料理を食べたい時に向く。",
    "address": "鹿児島県鹿児島市小松原1丁目43-19",
    "lat": 31.5313,
    "lng": 130.5286,
    "region": "鹿児島市郊外・桜島",
    "tags": [
      "グルメ",
      "焼肉",
      "ランチ",
      "ディナー",
      "家族向け",
      "肉料理",
      "鹿児島市郊外・桜島",
      "谷山"
    ],
    "durationMinutes": 90
  },
  {
    "name": "焼肉なべしま 谷山本町店",
    "area": "谷山",
    "genre": "焼肉",
    "description": "谷山で使いやすい焼肉店。鹿児島発チェーンで、家族連れやグループの夕食に向く。夜は4,000円前後から、グループで肉料理を食べたい時に向く。",
    "address": "鹿児島県鹿児島市谷山中央",
    "lat": 31.526,
    "lng": 130.518,
    "region": "鹿児島市郊外・桜島",
    "tags": [
      "グルメ",
      "焼肉",
      "ディナー",
      "家族向け",
      "肉料理",
      "鹿児島市郊外・桜島",
      "谷山"
    ],
    "durationMinutes": 90
  },
  {
    "name": "農家レストランたわわ",
    "area": "谷山",
    "genre": "郷土料理",
    "description": "鹿児島県産の農畜産物を使ったビュッフェ。ランチは野菜多めで、郊外ドライブ時に向く。夜は3,000〜5,000円前後で、焼酎と合わせて楽しみやすい。",
    "address": "鹿児島県鹿児島市西谷山1丁目5",
    "lat": 31.5127,
    "lng": 130.5029,
    "region": "鹿児島市郊外・桜島",
    "tags": [
      "グルメ",
      "郷土料理",
      "ランチ",
      "ディナー",
      "鹿児島市郊外・桜島",
      "谷山"
    ],
    "durationMinutes": 90
  },
  {
    "name": "たわわのわ",
    "area": "谷山",
    "genre": "カフェ",
    "description": "たわわタウン内で地元食材を使った軽食やスイーツを楽しめる。買い物休憩にも便利。予算は1,000円前後からで、観光中の休憩にも向く。",
    "address": "鹿児島県鹿児島市西谷山1丁目5",
    "lat": 31.5127,
    "lng": 130.5029,
    "region": "鹿児島市郊外・桜島",
    "tags": [
      "グルメ",
      "カフェ",
      "休憩",
      "鹿児島市郊外・桜島",
      "谷山"
    ],
    "durationMinutes": 45
  },
  {
    "name": "仏跳麺 笹貫バイパス店",
    "area": "谷山",
    "genre": "ラーメン",
    "description": "黒豚系ラーメンを谷山方面で食べられる店。車移動時の昼食候補として使いやすい。予算は1,000円前後で、短時間の昼食や締めにも使いやすい。",
    "address": "鹿児島県鹿児島市東谷山4丁目18-1",
    "lat": 31.5264,
    "lng": 130.5274,
    "region": "鹿児島市郊外・桜島",
    "tags": [
      "グルメ",
      "ラーメン",
      "鹿児島名物",
      "ランチ",
      "短時間",
      "肉料理",
      "鹿児島市郊外・桜島",
      "谷山"
    ],
    "durationMinutes": 45
  },
  {
    "name": "ふく福 中山店",
    "area": "谷山",
    "genre": "郷土料理",
    "description": "そば、和食、定食を幅広く選べる郊外店。家族連れや車移動の食事に使いやすい。夜は3,000〜5,000円前後で、焼酎と合わせて楽しみやすい。",
    "address": "鹿児島県鹿児島市中山2丁目1-12",
    "lat": 31.5486,
    "lng": 130.5111,
    "region": "鹿児島市郊外・桜島",
    "tags": [
      "グルメ",
      "郷土料理",
      "ランチ",
      "ディナー",
      "家族向け",
      "鹿児島市郊外・桜島",
      "谷山"
    ],
    "durationMinutes": 90
  },
  {
    "name": "THE PENTHOUSE",
    "area": "桜島",
    "genre": "その他",
    "description": "海沿いのホテル内レストラン。桜島や錦江湾の眺めと合わせて食事を楽しみたい時に向く。予算は1,000〜3,000円前後で、旅程に合わせて使いやすい。",
    "address": "鹿児島県鹿児島市与次郎1丁目",
    "lat": 31.5645,
    "lng": 130.5605,
    "region": "鹿児島市郊外・桜島",
    "tags": [
      "グルメ",
      "その他",
      "鹿児島市郊外・桜島",
      "桜島"
    ],
    "durationMinutes": 60
  },
  {
    "name": "CAFE&BAR VENIHANA",
    "area": "与次郎",
    "genre": "カフェ",
    "description": "ランチ、カフェ、スイーツまで使える与次郎の店。クレープなど甘いメニューも充実している。予算は1,000円前後からで、観光中の休憩にも向く。",
    "address": "鹿児島県鹿児島市与次郎",
    "lat": 31.5639,
    "lng": 130.56,
    "region": "鹿児島市中心部",
    "tags": [
      "グルメ",
      "カフェ",
      "ランチ",
      "休憩",
      "与次郎"
    ],
    "durationMinutes": 45
  },
  {
    "name": "ざぼんラーメン 与次郎店",
    "area": "与次郎",
    "genre": "ラーメン",
    "description": "与次郎で鹿児島ラーメンを食べられる定番店。買い物や海沿いドライブの食事に便利。予算は1,000円前後で、短時間の昼食や締めにも使いやすい。",
    "address": "鹿児島県鹿児島市与次郎",
    "lat": 31.565,
    "lng": 130.5602,
    "region": "鹿児島市中心部",
    "tags": [
      "グルメ",
      "ラーメン",
      "ランチ",
      "短時間",
      "与次郎"
    ],
    "durationMinutes": 45
  },
  {
    "name": "Kurozu Farm CAFE AND MARKET",
    "area": "霧島",
    "genre": "カフェ",
    "description": "黒酢ドリンクやスイーツを楽しめるカフェ。霧島方面へ足を延ばす時の鹿児島らしい寄り道に向く。予算は1,000円前後からで、観光中の休憩にも向く。",
    "address": "鹿児島県霧島市福山町福山3075",
    "lat": 31.6752,
    "lng": 130.8495,
    "region": "霧島・姶良",
    "tags": [
      "グルメ",
      "カフェ",
      "休憩",
      "霧島・姶良",
      "霧島"
    ],
    "durationMinutes": 45
  },
  {
    "name": "道の駅桜島 レストラン",
    "area": "桜島",
    "genre": "郷土料理",
    "description": "桜島大根や小みかんなど地元食材を意識した食事ができる。土産購入と合わせやすい。夜は3,000〜5,000円前後で、焼酎と合わせて楽しみやすい。",
    "address": "鹿児島県鹿児島市桜島横山町1722-48",
    "lat": 31.5927,
    "lng": 130.6013,
    "region": "鹿児島市郊外・桜島",
    "tags": [
      "グルメ",
      "郷土料理",
      "ディナー",
      "家族向け",
      "短時間",
      "鹿児島市郊外・桜島",
      "桜島"
    ],
    "durationMinutes": 45
  },
  {
    "name": "茶房 茶尾",
    "area": "鴨池・騎射場",
    "genre": "カフェ",
    "description": "甘味や喫茶利用に向く騎射場周辺の店。観光中心部から少し外れて静かに休憩できる。予算は1,000円前後からで、観光中の休憩にも向く。",
    "address": "鹿児島県鹿児島市荒田周辺",
    "lat": 31.5714,
    "lng": 130.5506,
    "region": "鹿児島市中心部",
    "tags": [
      "グルメ",
      "カフェ",
      "休憩",
      "鴨池・騎射場"
    ],
    "durationMinutes": 45
  },
  {
    "name": "カフェ チビチビ",
    "area": "鴨池・騎射場",
    "genre": "カフェ",
    "description": "騎射場駅近くで小休憩に使えるカフェ。コーヒーや軽食で、地元エリア散策の休憩に向く。予算は1,000円前後からで、観光中の休憩にも向く。",
    "address": "鹿児島県鹿児島市荒田2丁目周辺",
    "lat": 31.5707,
    "lng": 130.5504,
    "region": "鹿児島市中心部",
    "tags": [
      "グルメ",
      "カフェ",
      "短時間",
      "休憩",
      "鴨池・騎射場"
    ],
    "durationMinutes": 45
  },
  {
    "name": "南蛮",
    "area": "鴨池・騎射場",
    "genre": "その他",
    "description": "騎射場周辺で洋食・定食系を食べたい時の候補。地元学生街らしい普段使いの食事に向く。予算は1,000〜3,000円前後で、旅程に合わせて使いやすい。",
    "address": "鹿児島県鹿児島市荒田2丁目周辺",
    "lat": 31.5708,
    "lng": 130.5501,
    "region": "鹿児島市中心部",
    "tags": [
      "グルメ",
      "その他",
      "ランチ",
      "鴨池・騎射場"
    ],
    "durationMinutes": 60
  },
  {
    "name": "和Dining 柊 騎射場",
    "area": "鴨池・騎射場",
    "genre": "居酒屋",
    "description": "地鶏や海鮮を楽しめる騎射場駅近くの和風ダイニング。夜は4,000円前後の宴会にも使いやすい。夜は3,000〜4,000円前後で、焼酎と一緒に楽しみやすい。",
    "address": "鹿児島県鹿児島市荒田2丁目",
    "lat": 31.5707,
    "lng": 130.5502,
    "region": "鹿児島市中心部",
    "tags": [
      "グルメ",
      "居酒屋",
      "ディナー",
      "短時間",
      "海鮮",
      "肉料理",
      "鴨池・騎射場"
    ],
    "durationMinutes": 45
  },
  {
    "name": "串かつ大黒 騎射場",
    "area": "鴨池・騎射場",
    "genre": "居酒屋",
    "description": "串かつと一品料理を気軽に楽しめる騎射場の居酒屋。夜は3,000円台から使いやすい。夜は3,000〜4,000円前後で、焼酎と一緒に楽しみやすい。",
    "address": "鹿児島県鹿児島市荒田2丁目",
    "lat": 31.5706,
    "lng": 130.5502,
    "region": "鹿児島市中心部",
    "tags": [
      "グルメ",
      "居酒屋",
      "ディナー",
      "鴨池・騎射場"
    ],
    "durationMinutes": 90
  },
  {
    "name": "居酒屋 亮 騎射場店",
    "area": "鴨池・騎射場",
    "genre": "居酒屋",
    "description": "騎射場エリアで魚や肉料理を楽しめる居酒屋。地元感のある夜ごはん候補として使いやすい。夜は3,000〜4,000円前後で、焼酎と一緒に楽しみやすい。",
    "address": "鹿児島県鹿児島市荒田2丁目周辺",
    "lat": 31.5707,
    "lng": 130.5503,
    "region": "鹿児島市中心部",
    "tags": [
      "グルメ",
      "居酒屋",
      "ディナー",
      "海鮮",
      "肉料理",
      "鴨池・騎射場"
    ],
    "durationMinutes": 90
  },
  {
    "name": "炭火やきとり 一期家一会 騎射場",
    "area": "鴨池・騎射場",
    "genre": "居酒屋",
    "description": "炭火焼き鳥を中心に楽しめる騎射場の居酒屋。焼酎と合わせた夜の食事に向く。夜は3,000〜4,000円前後で、焼酎と一緒に楽しみやすい。",
    "address": "鹿児島県鹿児島市荒田2丁目周辺",
    "lat": 31.5707,
    "lng": 130.5502,
    "region": "鹿児島市中心部",
    "tags": [
      "グルメ",
      "居酒屋",
      "ディナー",
      "鴨池・騎射場"
    ],
    "durationMinutes": 90
  },
  {
    "name": "やきとり騎射場",
    "area": "鴨池・騎射場",
    "genre": "居酒屋",
    "description": "騎射場駅徒歩圏の焼き鳥店。通常予算は3,000円前後で、学生街らしい夜ごはんに使いやすい。夜は3,000〜4,000円前後で、焼酎と一緒に楽しみやすい。",
    "address": "鹿児島県鹿児島市荒田2-42-15",
    "lat": 31.5707,
    "lng": 130.5504,
    "region": "鹿児島市中心部",
    "tags": [
      "グルメ",
      "居酒屋",
      "ディナー",
      "短時間",
      "鴨池・騎射場"
    ],
    "durationMinutes": 45
  },
  {
    "name": "ひでもも屋",
    "area": "鴨池・騎射場",
    "genre": "カフェ",
    "description": "洋食、カフェ、居酒屋使いができる騎射場駅近くの店。ランチは1,000円台から利用しやすい。予算は1,000円前後からで、観光中の休憩にも向く。",
    "address": "鹿児島県鹿児島市荒田2丁目周辺",
    "lat": 31.5708,
    "lng": 130.5503,
    "region": "鹿児島市中心部",
    "tags": [
      "グルメ",
      "カフェ",
      "ランチ",
      "ディナー",
      "短時間",
      "休憩",
      "鴨池・騎射場"
    ],
    "durationMinutes": 45
  },
  {
    "name": "珈琲いづみ",
    "area": "鴨池・騎射場",
    "genre": "カフェ",
    "description": "騎射場周辺で落ち着いてコーヒーを飲める喫茶店。ランチ後の休憩や地元散策に向く。予算は1,000円前後からで、観光中の休憩にも向く。",
    "address": "鹿児島県鹿児島市荒田周辺",
    "lat": 31.571,
    "lng": 130.5505,
    "region": "鹿児島市中心部",
    "tags": [
      "グルメ",
      "カフェ",
      "ランチ",
      "休憩",
      "鴨池・騎射場"
    ],
    "durationMinutes": 45
  },
  {
    "name": "Cafe Espresso 114",
    "area": "鴨池・騎射場",
    "genre": "カフェ",
    "description": "荒田八幡駅近くのカフェ。コーヒーや軽食を楽しめ、騎射場・荒田周辺の休憩に便利。予算は1,000円前後からで、観光中の休憩にも向く。",
    "address": "鹿児島県鹿児島市荒田周辺",
    "lat": 31.573,
    "lng": 130.55,
    "region": "鹿児島市中心部",
    "tags": [
      "グルメ",
      "カフェ",
      "短時間",
      "休憩",
      "鴨池・騎射場"
    ],
    "durationMinutes": 45
  },
  {
    "name": "煉獄炭火 鰻鶏",
    "area": "鴨池・騎射場",
    "genre": "居酒屋",
    "description": "鰻と焼き鳥を楽しめる騎射場の店。夜は3,000円台から、肉系・鰻系の食事に使える。夜は3,000〜4,000円前後で、焼酎と一緒に楽しみやすい。",
    "address": "鹿児島県鹿児島市荒田2丁目周辺",
    "lat": 31.5706,
    "lng": 130.5502,
    "region": "鹿児島市中心部",
    "tags": [
      "グルメ",
      "居酒屋",
      "ディナー",
      "肉料理",
      "鴨池・騎射場"
    ],
    "durationMinutes": 90
  },
  {
    "name": "鰻亭 翠泉",
    "area": "鴨池・騎射場",
    "genre": "海鮮",
    "description": "国産鰻を楽しめる騎射場周辺の店。昼夜とも2,000円台から、少し贅沢な食事に向く。昼は1,500円前後から、夜は焼酎と合わせても楽しめる。",
    "address": "鹿児島県鹿児島市荒田周辺",
    "lat": 31.572,
    "lng": 130.5502,
    "region": "鹿児島市中心部",
    "tags": [
      "グルメ",
      "海鮮",
      "ランチ",
      "ディナー",
      "鴨池・騎射場"
    ],
    "durationMinutes": 90
  },
  {
    "name": "KAGOSHIMA BOLD KITCHEN",
    "area": "桜島",
    "genre": "その他",
    "description": "アートホテル鹿児島内のレストラン。桜島と錦江湾を望みながらランチや朝食を楽しめる。予算は1,000〜3,000円前後で、旅程に合わせて使いやすい。",
    "address": "鹿児島県鹿児島市鴨池新町22-1",
    "lat": 31.5547,
    "lng": 130.5587,
    "region": "鹿児島市郊外・桜島",
    "tags": [
      "グルメ",
      "その他",
      "ランチ",
      "鹿児島市郊外・桜島",
      "桜島"
    ],
    "durationMinutes": 60
  },
  {
    "name": "カフェ 豆の木",
    "area": "谷山",
    "genre": "カフェ",
    "description": "中山町のカフェ。週替わりプレートランチや黒ごまプリンなど、やさしい食事と甘味を楽しめる。予算は1,000円前後からで、観光中の休憩にも向く。",
    "address": "鹿児島県鹿児島市中山町周辺",
    "lat": 31.548,
    "lng": 130.511,
    "region": "鹿児島市郊外・桜島",
    "tags": [
      "グルメ",
      "カフェ",
      "ランチ",
      "休憩",
      "鹿児島市郊外・桜島",
      "谷山"
    ],
    "durationMinutes": 45
  },
  {
    "name": "FOOD CHANNEL COFFEE",
    "area": "谷山",
    "genre": "カフェ",
    "description": "東谷山のカフェ。コーヒーや軽食で、谷山方面の移動中に一息つきたい時に使いやすい。予算は1,000円前後からで、観光中の休憩にも向く。",
    "address": "鹿児島県鹿児島市東谷山2-8-23",
    "lat": 31.5316,
    "lng": 130.5265,
    "region": "鹿児島市郊外・桜島",
    "tags": [
      "グルメ",
      "カフェ",
      "休憩",
      "鹿児島市郊外・桜島",
      "谷山"
    ],
    "durationMinutes": 45
  },
  {
    "name": "Cafe Station 木楽来",
    "area": "谷山",
    "genre": "カフェ",
    "description": "東谷山周辺のカフェ。ランチやコーヒー休憩に使いやすく、郊外移動時の候補になる。予算は1,000円前後からで、観光中の休憩にも向く。",
    "address": "鹿児島県鹿児島市東谷山周辺",
    "lat": 31.528,
    "lng": 130.525,
    "region": "鹿児島市郊外・桜島",
    "tags": [
      "グルメ",
      "カフェ",
      "ランチ",
      "休憩",
      "鹿児島市郊外・桜島",
      "谷山"
    ],
    "durationMinutes": 45
  },
  {
    "name": "鹿児島漁港直送 かごしま魚市場",
    "area": "中央駅",
    "genre": "海鮮",
    "description": "中央駅周辺で刺身や魚料理を楽しめる海鮮系居酒屋。移動前後の夕食にも使いやすい。昼は1,500円前後から、夜は焼酎と合わせても楽しめる。",
    "address": "鹿児島県鹿児島市中央町",
    "lat": 31.584,
    "lng": 130.5423,
    "region": "鹿児島市中心部",
    "tags": [
      "グルメ",
      "海鮮",
      "ランチ",
      "ディナー",
      "短時間",
      "中央駅"
    ],
    "durationMinutes": 45
  },
  {
    "name": "焼肉厨房わきもと",
    "area": "鴨池・騎射場",
    "genre": "焼肉",
    "description": "鹿児島黒牛や黒豚を扱う焼肉店として知られる。肉系の夜ごはんを提案したい時の候補。夜は4,000円前後から、グループで肉料理を食べたい時に向く。",
    "address": "鹿児島県鹿児島市荒田2丁目周辺",
    "lat": 31.5705,
    "lng": 130.5501,
    "region": "鹿児島市中心部",
    "tags": [
      "グルメ",
      "焼肉",
      "鹿児島名物",
      "ディナー",
      "家族向け",
      "肉料理",
      "鴨池・騎射場"
    ],
    "durationMinutes": 90
  },
  {
    "name": "焼肉 多聞",
    "area": "天文館",
    "genre": "焼肉",
    "description": "天文館で黒毛和牛や焼肉を楽しめる店。夜は5,000円前後から、鹿児島の肉をしっかり食べたい時に向く。",
    "address": "鹿児島県鹿児島市山之口町周辺",
    "lat": 31.5872,
    "lng": 130.5526,
    "region": "鹿児島市中心部",
    "tags": [
      "グルメ",
      "焼肉",
      "ディナー",
      "肉料理",
      "天文館"
    ],
    "durationMinutes": 90
  },
  {
    "name": "市営唐船峡そうめん流し",
    "area": "指宿",
    "genre": "郷土料理",
    "description": "回転式そうめん流し発祥の地として知られる唐船峡の定番。そうめん定食は1,500円前後からで、夏の南薩観光に合う。",
    "address": "鹿児島県指宿市開聞十町5967",
    "lat": 31.1978,
    "lng": 130.5424,
    "region": "指宿・南薩",
    "tags": [
      "グルメ",
      "郷土料理",
      "鹿児島名物",
      "ランチ",
      "指宿・南薩",
      "指宿"
    ],
    "durationMinutes": 60
  },
  {
    "name": "長寿庵 開聞唐船峡店",
    "area": "指宿",
    "genre": "郷土料理",
    "description": "唐船峡でそうめん流しや鯉料理を楽しめる食事処。昼は1,500円前後からで、開聞岳周辺の観光と合わせやすい。",
    "address": "鹿児島県指宿市開聞仙田77",
    "lat": 31.1982,
    "lng": 130.543,
    "region": "指宿・南薩",
    "tags": [
      "グルメ",
      "郷土料理",
      "鹿児島名物",
      "ランチ",
      "指宿・南薩",
      "指宿"
    ],
    "durationMinutes": 60
  },
  {
    "name": "黒豚と郷土料理 青葉",
    "area": "指宿",
    "genre": "黒豚",
    "description": "指宿駅近くで黒豚しゃぶしゃぶや温たまらん丼を味わえる店。昼は1,500円前後から、温泉街の食事に便利。",
    "address": "鹿児島県指宿市湊1-2-11",
    "lat": 31.2411,
    "lng": 130.6429,
    "region": "指宿・南薩",
    "tags": [
      "グルメ",
      "黒豚",
      "鹿児島名物",
      "ランチ",
      "短時間",
      "肉料理",
      "指宿・南薩",
      "指宿"
    ],
    "durationMinutes": 45
  },
  {
    "name": "道の駅山川港 活お海道 市場食堂",
    "area": "指宿",
    "genre": "海鮮",
    "description": "山川港の近くで海鮮丼やかつお料理を楽しめる食堂。昼は1,500円前後からで、長崎鼻方面の移動中に使いやすい。",
    "address": "鹿児島県指宿市山川金生町1-10",
    "lat": 31.2022,
    "lng": 130.637,
    "region": "指宿・南薩",
    "tags": [
      "グルメ",
      "海鮮",
      "鹿児島名物",
      "ランチ",
      "家族向け",
      "短時間",
      "指宿・南薩",
      "指宿"
    ],
    "durationMinutes": 45
  },
  {
    "name": "池田湖パラダイス",
    "area": "指宿",
    "genre": "その他",
    "description": "池田湖畔で食事や土産探しができる観光施設。昼は1,000円台からで、開聞岳を眺めるドライブ休憩に向く。",
    "address": "鹿児島県指宿市池田5268",
    "lat": 31.2477,
    "lng": 130.5499,
    "region": "指宿・南薩",
    "tags": [
      "グルメ",
      "その他",
      "ランチ",
      "家族向け",
      "休憩",
      "指宿・南薩",
      "指宿"
    ],
    "durationMinutes": 60
  },
  {
    "name": "高城庵",
    "area": "南九州",
    "genre": "郷土料理",
    "description": "知覧武家屋敷群の中で郷土料理を味わえる食事処。昼は1,500円前後からで、庭園散策と合わせやすい。昼夜とも旅程に合わせて、鹿児島らしい食材を味わいやすい。",
    "address": "鹿児島県南九州市知覧町郡6329",
    "lat": 31.3785,
    "lng": 130.4442,
    "region": "指宿・南薩",
    "tags": [
      "グルメ",
      "郷土料理",
      "ランチ",
      "ディナー",
      "指宿・南薩",
      "南九州"
    ],
    "durationMinutes": 90
  },
  {
    "name": "知覧茶屋",
    "area": "南九州",
    "genre": "郷土料理",
    "description": "知覧茶や郷土料理を楽しめる観光客向けの食事処。昼は1,000〜2,000円前後で、武家屋敷散策の休憩に便利。",
    "address": "鹿児島県南九州市知覧町郡17856",
    "lat": 31.3702,
    "lng": 130.4412,
    "region": "指宿・南薩",
    "tags": [
      "グルメ",
      "郷土料理",
      "ランチ",
      "休憩",
      "指宿・南薩",
      "南九州"
    ],
    "durationMinutes": 60
  },
  {
    "name": "枕崎お魚センター",
    "area": "枕崎",
    "genre": "海鮮",
    "description": "枕崎港近くでかつおや海鮮料理を選べる観光施設。昼は1,500円前後からで、かつおの町らしい食事に向く。",
    "address": "鹿児島県枕崎市松之尾町33-1",
    "lat": 31.2708,
    "lng": 130.293,
    "region": "指宿・南薩",
    "tags": [
      "グルメ",
      "海鮮",
      "鹿児島名物",
      "ランチ",
      "家族向け",
      "指宿・南薩",
      "枕崎"
    ],
    "durationMinutes": 60
  },
  {
    "name": "魚処まんぼう",
    "area": "枕崎",
    "genre": "海鮮",
    "description": "枕崎でかつお料理や刺身定食を楽しめる食事処。昼は1,500円前後からで、港町らしい海鮮ランチに向く。",
    "address": "鹿児島県枕崎市恵比須町198-3",
    "lat": 31.2724,
    "lng": 130.2945,
    "region": "指宿・南薩",
    "tags": [
      "グルメ",
      "海鮮",
      "鹿児島名物",
      "ランチ",
      "指宿・南薩",
      "枕崎"
    ],
    "durationMinutes": 60
  },
  {
    "name": "だいとく",
    "area": "枕崎",
    "genre": "海鮮",
    "description": "枕崎名物のかつお料理を味わえる老舗食事処。昼は1,500円前後からで、かつお丼や定食を狙いたい時に便利。",
    "address": "鹿児島県枕崎市折口町17",
    "lat": 31.2726,
    "lng": 130.296,
    "region": "指宿・南薩",
    "tags": [
      "グルメ",
      "海鮮",
      "鹿児島名物",
      "ランチ",
      "指宿・南薩",
      "枕崎"
    ],
    "durationMinutes": 60
  },
  {
    "name": "黒豚の館",
    "area": "霧島",
    "genre": "黒豚",
    "description": "霧島高原純粋黒豚のとんかつやしゃぶしゃぶで知られる店。昼は2,000円前後から、霧島ドライブの食事に向く。",
    "address": "鹿児島県霧島市霧島永水4962",
    "lat": 31.8408,
    "lng": 130.8574,
    "region": "霧島・姶良",
    "tags": [
      "グルメ",
      "黒豚",
      "鹿児島名物",
      "ランチ",
      "肉料理",
      "霧島・姶良",
      "霧島"
    ],
    "durationMinutes": 60
  },
  {
    "name": "鹿児島ラーメン みよし家 空港バイパス店",
    "area": "霧島",
    "genre": "ラーメン",
    "description": "鹿児島空港近くで食べやすい老舗ラーメン店。予算は1,000円前後で、到着後や出発前の短時間食事に便利。",
    "address": "鹿児島県霧島市隼人町西光寺1016-1",
    "lat": 31.7938,
    "lng": 130.7205,
    "region": "霧島・姶良",
    "tags": [
      "グルメ",
      "ラーメン",
      "短時間",
      "霧島・姶良",
      "霧島"
    ],
    "durationMinutes": 45
  },
  {
    "name": "地鶏の里 永楽荘",
    "area": "霧島",
    "genre": "郷土料理",
    "description": "霧島で地鶏料理や炭火焼を楽しめる食事処。昼夜とも2,000円前後から、温泉旅の鹿児島らしい肉料理に向く。",
    "address": "鹿児島県霧島市隼人町松永3766",
    "lat": 31.7891,
    "lng": 130.77,
    "region": "霧島・姶良",
    "tags": [
      "グルメ",
      "郷土料理",
      "ランチ",
      "ディナー",
      "肉料理",
      "霧島・姶良",
      "霧島"
    ],
    "durationMinutes": 90
  },
  {
    "name": "霧島峠茶屋",
    "area": "霧島",
    "genre": "郷土料理",
    "description": "霧島神宮方面でそばや定食を楽しめる茶屋。昼は1,000〜1,500円前後で、霧島観光中の休憩に使いやすい。",
    "address": "鹿児島県霧島市霧島田口2583-8",
    "lat": 31.868,
    "lng": 130.8625,
    "region": "霧島・姶良",
    "tags": [
      "グルメ",
      "郷土料理",
      "ランチ",
      "休憩",
      "霧島・姶良",
      "霧島"
    ],
    "durationMinutes": 60
  },
  {
    "name": "霧島たまご牧場",
    "area": "霧島",
    "genre": "カフェ",
    "description": "卵を使ったオムライスやスイーツが人気の観光牧場系カフェ。昼は1,500円前後で、家族連れにも提案しやすい。",
    "address": "鹿児島県霧島市霧島永水4962",
    "lat": 31.8402,
    "lng": 130.858,
    "region": "霧島・姶良",
    "tags": [
      "グルメ",
      "カフェ",
      "ランチ",
      "家族向け",
      "休憩",
      "霧島・姶良",
      "霧島"
    ],
    "durationMinutes": 45
  },
  {
    "name": "バレルバレープラハ&GEN",
    "area": "霧島",
    "genre": "その他",
    "description": "麹や焼酎文化に触れられる観光施設併設の食事処。昼は1,500円前後からで、空港周辺の立ち寄りに向く。",
    "address": "鹿児島県霧島市溝辺町麓876-15",
    "lat": 31.7984,
    "lng": 130.7172,
    "region": "霧島・姶良",
    "tags": [
      "グルメ",
      "その他",
      "ランチ",
      "ディナー",
      "家族向け",
      "短時間",
      "霧島・姶良",
      "霧島"
    ],
    "durationMinutes": 45
  },
  {
    "name": "森のかぞく 姶良店",
    "area": "姶良",
    "genre": "カフェ",
    "description": "地元野菜を使ったランチや惣菜を楽しめる店。昼は1,500円前後で、姶良方面のヘルシーな食事候補になる。",
    "address": "鹿児島県姶良市東餅田399-13",
    "lat": 31.7336,
    "lng": 130.6249,
    "region": "霧島・姶良",
    "tags": [
      "グルメ",
      "カフェ",
      "ランチ",
      "休憩",
      "霧島・姶良",
      "姶良"
    ],
    "durationMinutes": 45
  },
  {
    "name": "フォンタナの丘かもう レストラン",
    "area": "姶良",
    "genre": "その他",
    "description": "蒲生の温泉施設内でランチや会席を楽しめるレストラン。昼は1,500円前後から、蒲生大楠観光と合わせやすい。",
    "address": "鹿児島県姶良市蒲生町久末434-1",
    "lat": 31.7694,
    "lng": 130.5532,
    "region": "霧島・姶良",
    "tags": [
      "グルメ",
      "その他",
      "ランチ",
      "家族向け",
      "霧島・姶良",
      "姶良"
    ],
    "durationMinutes": 60
  },
  {
    "name": "いちき串木野まぐろラーメン みその",
    "area": "いちき串木野",
    "genre": "ラーメン",
    "description": "まぐろの町らしい出汁を使ったご当地ラーメンを味わえる店。予算は1,000円前後で、北薩ドライブに合う。",
    "address": "鹿児島県いちき串木野市北浜町4",
    "lat": 31.7148,
    "lng": 130.2725,
    "region": "北薩",
    "tags": [
      "グルメ",
      "ラーメン",
      "北薩",
      "いちき串木野"
    ],
    "durationMinutes": 45
  },
  {
    "name": "薩摩金山蔵 レストラン",
    "area": "いちき串木野",
    "genre": "郷土料理",
    "description": "焼酎蔵見学と食事を合わせやすい観光施設。昼は1,500円前後からで、串木野方面の立ち寄りに便利。昼夜とも旅程に合わせて、鹿児島らしい食材を味わいやすい。",
    "address": "鹿児島県いちき串木野市野下13665",
    "lat": 31.733,
    "lng": 130.29,
    "region": "北薩",
    "tags": [
      "グルメ",
      "郷土料理",
      "ランチ",
      "ディナー",
      "家族向け",
      "北薩",
      "いちき串木野"
    ],
    "durationMinutes": 90
  },
  {
    "name": "漁亭いわし茶屋",
    "area": "阿久根",
    "genre": "海鮮",
    "description": "北薩でいわし料理や海鮮を楽しめる食事処。昼は1,500円前後からで、出水・阿久根方面の食事に向く。昼は1,500円前後から、地元の魚介を楽しみやすい。",
    "address": "鹿児島県出水市武本3063-1",
    "lat": 32.083,
    "lng": 130.3512,
    "region": "北薩",
    "tags": [
      "グルメ",
      "海鮮",
      "ランチ",
      "北薩",
      "阿久根"
    ],
    "durationMinutes": 60
  },
  {
    "name": "いけすの山和",
    "area": "阿久根",
    "genre": "海鮮",
    "description": "阿久根の魚介を使った刺身や定食を楽しめる食事処。昼は1,500円前後からで、港町らしい海鮮に向く。昼は1,500円前後から、地元の魚介を楽しみやすい。",
    "address": "鹿児島県阿久根市脇本",
    "lat": 32.065,
    "lng": 130.2,
    "region": "北薩",
    "tags": [
      "グルメ",
      "海鮮",
      "ランチ",
      "北薩",
      "阿久根"
    ],
    "durationMinutes": 60
  },
  {
    "name": "市場食堂 ぶえんかん",
    "area": "阿久根",
    "genre": "海鮮",
    "description": "阿久根の魚市場に近い海鮮食堂。刺身定食や海鮮丼を1,500円前後から狙え、北薩の昼食に使いやすい。昼は1,500円前後から、地元の魚介を楽しみやすい。",
    "address": "鹿児島県阿久根市晴海町4",
    "lat": 32.022,
    "lng": 130.199,
    "region": "北薩",
    "tags": [
      "グルメ",
      "海鮮",
      "ランチ",
      "北薩",
      "阿久根"
    ],
    "durationMinutes": 60
  },
  {
    "name": "うなぎのやまげん 川内店",
    "area": "薩摩川内",
    "genre": "その他",
    "description": "鹿児島で親しまれるうなぎ料理店。昼夜とも2,000円前後から、北薩で少ししっかり食べたい時に向く。予算は1,000〜3,000円前後で、旅程に合わせて使いやすい。",
    "address": "鹿児島県薩摩川内市東大小路町",
    "lat": 31.819,
    "lng": 130.306,
    "region": "北薩",
    "tags": [
      "グルメ",
      "その他",
      "ランチ",
      "ディナー",
      "北薩",
      "薩摩川内"
    ],
    "durationMinutes": 90
  },
  {
    "name": "黒豚本舗 どん",
    "area": "薩摩川内",
    "genre": "黒豚",
    "description": "薩摩川内で黒豚料理を楽しめる食事処。昼は1,500円前後から、鹿児島らしい肉料理を北薩で食べたい時に向く。",
    "address": "鹿児島県薩摩川内市東向田町",
    "lat": 31.8136,
    "lng": 130.3052,
    "region": "北薩",
    "tags": [
      "グルメ",
      "黒豚",
      "鹿児島名物",
      "ランチ",
      "肉料理",
      "北薩",
      "薩摩川内"
    ],
    "durationMinutes": 60
  },
  {
    "name": "味処 海の桜勘",
    "area": "垂水",
    "genre": "海鮮",
    "description": "垂水のブランドかんぱちを味わえる漁協系の食事処。昼は1,500円前後からで、大隅方面の海鮮ランチに最適。",
    "address": "鹿児島県垂水市海潟643-6",
    "lat": 31.4938,
    "lng": 130.7044,
    "region": "大隅",
    "tags": [
      "グルメ",
      "海鮮",
      "ランチ",
      "大隅",
      "垂水"
    ],
    "durationMinutes": 60
  },
  {
    "name": "道の駅たるみず湯っ足り館 レストラン",
    "area": "垂水",
    "genre": "海鮮",
    "description": "桜島を望む道の駅で定食や海鮮を楽しめる。昼は1,000〜1,500円前後で、足湯休憩と合わせやすい。",
    "address": "鹿児島県垂水市牛根麓1038-1",
    "lat": 31.5479,
    "lng": 130.7045,
    "region": "大隅",
    "tags": [
      "グルメ",
      "海鮮",
      "ランチ",
      "家族向け",
      "短時間",
      "休憩",
      "大隅",
      "垂水"
    ],
    "durationMinutes": 45
  },
  {
    "name": "とんかつ竹亭 鹿屋本店",
    "area": "鹿屋",
    "genre": "黒豚",
    "description": "鹿屋発の人気とんかつ店。黒豚系の定食を1,500円前後から楽しめ、大隅で肉系ランチを探す時に向く。ランチは1,500円前後から、鹿児島らしい肉料理を楽しめる。",
    "address": "鹿児島県鹿屋市西大手町9-15",
    "lat": 31.3858,
    "lng": 130.8516,
    "region": "大隅",
    "tags": [
      "グルメ",
      "黒豚",
      "鹿児島名物",
      "ランチ",
      "肉料理",
      "大隅",
      "鹿屋"
    ],
    "durationMinutes": 60
  },
  {
    "name": "みなと食堂",
    "area": "鹿屋",
    "genre": "海鮮",
    "description": "鹿屋の漁港近くでかんぱちや海鮮定食を楽しめる食堂。昼は1,500円前後からで、大隅の海鮮候補になる。",
    "address": "鹿児島県鹿屋市古江町7468",
    "lat": 31.4154,
    "lng": 130.7545,
    "region": "大隅",
    "tags": [
      "グルメ",
      "海鮮",
      "ランチ",
      "大隅",
      "鹿屋"
    ],
    "durationMinutes": 60
  },
  {
    "name": "レストラン森小休",
    "area": "鹿屋",
    "genre": "その他",
    "description": "かのやばら園内で食事や軽食を取れるレストラン。昼は1,000円台からで、花の見頃に合わせた休憩に便利。",
    "address": "鹿児島県鹿屋市浜田町1250",
    "lat": 31.3781,
    "lng": 130.8116,
    "region": "大隅",
    "tags": [
      "グルメ",
      "その他",
      "ランチ",
      "休憩",
      "大隅",
      "鹿屋"
    ],
    "durationMinutes": 60
  },
  {
    "name": "道の駅根占 レストラン",
    "area": "南大隅",
    "genre": "海鮮",
    "description": "佐多岬方面へ向かう途中に立ち寄りやすい道の駅食堂。昼は1,000円台からで、海沿いドライブの休憩に向く。",
    "address": "鹿児島県肝属郡南大隅町根占山本6868",
    "lat": 31.218,
    "lng": 130.7695,
    "region": "大隅",
    "tags": [
      "グルメ",
      "海鮮",
      "ランチ",
      "家族向け",
      "短時間",
      "休憩",
      "大隅",
      "南大隅"
    ],
    "durationMinutes": 45
  },
  {
    "name": "ジョイフル種子島西之表店",
    "area": "種子島",
    "genre": "その他",
    "description": "西之表市街で朝から夜まで使いやすいファミリーレストラン。予算は1,000円前後で、移動日の食事に便利。",
    "address": "鹿児島県西之表市西之表16069",
    "lat": 30.7325,
    "lng": 130.996,
    "region": "種子島・屋久島",
    "tags": [
      "グルメ",
      "その他",
      "ディナー",
      "家族向け",
      "離島",
      "種子島・屋久島",
      "種子島"
    ],
    "durationMinutes": 90
  },
  {
    "name": "味処井元",
    "area": "種子島",
    "genre": "郷土料理",
    "description": "種子島の地魚や郷土料理を楽しめる食事処。夜は3,000円前後から、島の食材を味わいたい時に向く。昼夜とも旅程に合わせて、鹿児島らしい食材を味わいやすい。",
    "address": "鹿児島県西之表市西町",
    "lat": 30.7335,
    "lng": 130.9945,
    "region": "種子島・屋久島",
    "tags": [
      "グルメ",
      "郷土料理",
      "ランチ",
      "ディナー",
      "海鮮",
      "離島",
      "種子島・屋久島",
      "種子島"
    ],
    "durationMinutes": 90
  },
  {
    "name": "八作",
    "area": "種子島",
    "genre": "郷土料理",
    "description": "西之表市街で定食や島の料理を楽しめる食事処。昼夜とも1,000〜3,000円前後で、港周辺の食事に使いやすい。",
    "address": "鹿児島県西之表市西町",
    "lat": 30.7337,
    "lng": 130.9942,
    "region": "種子島・屋久島",
    "tags": [
      "グルメ",
      "郷土料理",
      "ランチ",
      "ディナー",
      "種子島・屋久島",
      "種子島"
    ],
    "durationMinutes": 90
  },
  {
    "name": "潮騒",
    "area": "屋久島",
    "genre": "海鮮",
    "description": "宮之浦港周辺で首折れサバや飛魚料理を狙える人気店。夜は3,000円前後から、屋久島到着日の食事に向く。",
    "address": "鹿児島県熊毛郡屋久島町宮之浦305-3",
    "lat": 30.427,
    "lng": 130.5716,
    "region": "種子島・屋久島",
    "tags": [
      "グルメ",
      "海鮮",
      "鹿児島名物",
      "ディナー",
      "離島",
      "種子島・屋久島",
      "屋久島"
    ],
    "durationMinutes": 90
  },
  {
    "name": "いその香り",
    "area": "屋久島",
    "genre": "海鮮",
    "description": "屋久島の地魚や寿司を楽しめる食事処。夜は3,000〜5,000円前後で、島の魚をしっかり食べたい時に向く。",
    "address": "鹿児島県熊毛郡屋久島町安房788-150",
    "lat": 30.317,
    "lng": 130.6592,
    "region": "種子島・屋久島",
    "tags": [
      "グルメ",
      "海鮮",
      "ディナー",
      "離島",
      "種子島・屋久島",
      "屋久島"
    ],
    "durationMinutes": 90
  },
  {
    "name": "屋久どん",
    "area": "屋久島",
    "genre": "郷土料理",
    "description": "飛魚料理や定食を楽しめる屋久島の食事処。昼は1,500円前後からで、島内周遊中の食事に使いやすい。昼夜とも旅程に合わせて、鹿児島らしい食材を味わいやすい。",
    "address": "鹿児島県熊毛郡屋久島町安房500-46",
    "lat": 30.3201,
    "lng": 130.659,
    "region": "種子島・屋久島",
    "tags": [
      "グルメ",
      "郷土料理",
      "鹿児島名物",
      "ランチ",
      "ディナー",
      "海鮮",
      "離島",
      "種子島・屋久島"
    ],
    "durationMinutes": 90
  },
  {
    "name": "散歩亭",
    "area": "屋久島",
    "genre": "カフェ",
    "description": "屋久島の食材を使った料理やカフェメニューを楽しめる店。昼は1,500円前後からで、森歩き後の休憩に向く。",
    "address": "鹿児島県熊毛郡屋久島町安房",
    "lat": 30.319,
    "lng": 130.6595,
    "region": "種子島・屋久島",
    "tags": [
      "グルメ",
      "カフェ",
      "ランチ",
      "休憩",
      "離島",
      "種子島・屋久島",
      "屋久島"
    ],
    "durationMinutes": 45
  },
  {
    "name": "鳥しん",
    "area": "奄美",
    "genre": "郷土料理",
    "description": "奄美名物の鶏飯や島料理を楽しめる名瀬の食事処。昼夜とも1,500円前後から、初奄美の食事に向く。昼夜とも旅程に合わせて、鹿児島らしい食材を味わいやすい。",
    "address": "鹿児島県奄美市名瀬伊津部町12-6",
    "lat": 28.3788,
    "lng": 129.494,
    "region": "奄美群島",
    "tags": [
      "グルメ",
      "郷土料理",
      "鹿児島名物",
      "ランチ",
      "ディナー",
      "離島",
      "奄美群島",
      "奄美"
    ],
    "durationMinutes": 90
  },
  {
    "name": "郷土料理かずみ",
    "area": "奄美",
    "genre": "郷土料理",
    "description": "奄美の島唄や郷土料理を楽しめる名瀬の店。夜は4,000円前後から、食文化を体験したい時に向く。昼夜とも旅程に合わせて、鹿児島らしい食材を味わいやすい。",
    "address": "鹿児島県奄美市名瀬末広町15-16",
    "lat": 28.3796,
    "lng": 129.4948,
    "region": "奄美群島",
    "tags": [
      "グルメ",
      "郷土料理",
      "ランチ",
      "ディナー",
      "離島",
      "奄美群島",
      "奄美"
    ],
    "durationMinutes": 90
  },
  {
    "name": "喜多八",
    "area": "奄美",
    "genre": "郷土料理",
    "description": "奄美の郷土料理をコースで味わえる老舗。夜は5,000円前後からで、鶏飯や島料理をまとめて体験できる。",
    "address": "鹿児島県奄美市名瀬入舟町18-30",
    "lat": 28.381,
    "lng": 129.493,
    "region": "奄美群島",
    "tags": [
      "グルメ",
      "郷土料理",
      "鹿児島名物",
      "ディナー",
      "離島",
      "奄美群島",
      "奄美"
    ],
    "durationMinutes": 90
  },
  {
    "name": "けいはん ひさ倉",
    "area": "奄美",
    "genre": "郷土料理",
    "description": "奄美名物の鶏飯で知られる店。昼は1,500円前後からで、空港方面から名瀬へ向かう途中にも立ち寄りやすい。",
    "address": "鹿児島県大島郡龍郷町屋入516",
    "lat": 28.409,
    "lng": 129.5895,
    "region": "奄美群島",
    "tags": [
      "グルメ",
      "郷土料理",
      "鹿児島名物",
      "ランチ",
      "短時間",
      "離島",
      "奄美群島",
      "奄美"
    ],
    "durationMinutes": 45
  },
  {
    "name": "島とうふ屋",
    "area": "奄美",
    "genre": "郷土料理",
    "description": "奄美の島豆腐を使った定食が人気の店。昼は1,500円前後からで、島食材を軽めに楽しみたい時に向く。昼夜とも旅程に合わせて、鹿児島らしい食材を味わいやすい。",
    "address": "鹿児島県大島郡龍郷町中勝1561-6",
    "lat": 28.4102,
    "lng": 129.5758,
    "region": "奄美群島",
    "tags": [
      "グルメ",
      "郷土料理",
      "ランチ",
      "ディナー",
      "離島",
      "奄美群島",
      "奄美"
    ],
    "durationMinutes": 90
  },
  {
    "name": "奄美きょら海工房",
    "area": "奄美",
    "genre": "カフェ",
    "description": "海沿いでパンやスイーツ、ランチを楽しめるカフェ。昼は1,500円前後からで、奄美北部ドライブの休憩に便利。",
    "address": "鹿児島県奄美市笠利町用安1254-1",
    "lat": 28.4408,
    "lng": 129.67,
    "region": "奄美群島",
    "tags": [
      "グルメ",
      "カフェ",
      "ランチ",
      "休憩",
      "離島",
      "奄美群島",
      "奄美"
    ],
    "durationMinutes": 45
  },
  {
    "name": "ヨロンの味 たら",
    "area": "与論",
    "genre": "郷土料理",
    "description": "与論島の郷土料理や島魚を楽しめる食事処。夜は3,000円前後から、島旅の夕食候補として使いやすい。昼夜とも旅程に合わせて、鹿児島らしい食材を味わいやすい。",
    "address": "鹿児島県大島郡与論町茶花",
    "lat": 27.048,
    "lng": 128.4148,
    "region": "奄美群島",
    "tags": [
      "グルメ",
      "郷土料理",
      "ランチ",
      "ディナー",
      "海鮮",
      "離島",
      "奄美群島",
      "与論"
    ],
    "durationMinutes": 90
  },
  {
    "name": "蒼い珊瑚礁",
    "area": "与論",
    "genre": "カフェ",
    "description": "与論島の海を感じながら食事やドリンクを楽しめる店。昼は1,500円前後からで、島内ドライブの休憩に向く。",
    "address": "鹿児島県大島郡与論町立長637-1",
    "lat": 27.0378,
    "lng": 128.443,
    "region": "奄美群島",
    "tags": [
      "グルメ",
      "カフェ",
      "ランチ",
      "休憩",
      "離島",
      "奄美群島",
      "与論"
    ],
    "durationMinutes": 45
  },
  {
    "name": "江口蓬莱館 レストラン",
    "area": "日置",
    "genre": "海鮮",
    "description": "江口浜近くで地魚の定食や海鮮丼を楽しめる物産館併設の食事処。昼は1,500円前後からで海沿いドライブに合う。",
    "address": "鹿児島県日置市東市来町伊作田7425-5",
    "lat": 31.6798,
    "lng": 130.3221,
    "region": "指宿・南薩",
    "tags": [
      "グルメ",
      "海鮮",
      "ランチ",
      "指宿・南薩",
      "日置"
    ],
    "durationMinutes": 60
  },
  {
    "name": "沈壽官窯 茶寮",
    "area": "日置",
    "genre": "カフェ",
    "description": "薩摩焼の里・美山で器文化に触れながら休憩できるスポット。予算は1,000円前後からで、工房巡りと合わせやすい。",
    "address": "鹿児島県日置市東市来町美山",
    "lat": 31.6581,
    "lng": 130.3522,
    "region": "指宿・南薩",
    "tags": [
      "グルメ",
      "カフェ",
      "休憩",
      "指宿・南薩",
      "日置"
    ],
    "durationMinutes": 45
  },
  {
    "name": "吹上浜フィールドホテル レストラン",
    "area": "いちき串木野",
    "genre": "カフェ",
    "description": "海沿いの宿泊施設内でランチやカフェ利用ができる。昼は1,500円前後からで、吹上浜方面の休憩に向く。",
    "address": "鹿児島県いちき串木野市湊町1-101",
    "lat": 31.7045,
    "lng": 130.283,
    "region": "北薩",
    "tags": [
      "グルメ",
      "カフェ",
      "ランチ",
      "家族向け",
      "休憩",
      "北薩",
      "いちき串木野"
    ],
    "durationMinutes": 45
  },
  {
    "name": "海鮮まぐろ家",
    "area": "いちき串木野",
    "genre": "海鮮",
    "description": "串木野のまぐろを丼や定食で楽しめる食事処。昼は1,500円前後からで、まぐろラーメン以外の候補になる。",
    "address": "鹿児島県いちき串木野市上名",
    "lat": 31.716,
    "lng": 130.274,
    "region": "北薩",
    "tags": [
      "グルメ",
      "海鮮",
      "ランチ",
      "北薩",
      "いちき串木野"
    ],
    "durationMinutes": 60
  },
  {
    "name": "味の三筋",
    "area": "出水",
    "genre": "郷土料理",
    "description": "出水市街で和食や定食を楽しめる地元の食事処。昼夜とも1,000〜3,000円前後で、武家屋敷散策後に使いやすい。",
    "address": "鹿児島県出水市本町",
    "lat": 32.09,
    "lng": 130.354,
    "region": "北薩",
    "tags": [
      "グルメ",
      "郷土料理",
      "ランチ",
      "ディナー",
      "北薩",
      "出水"
    ],
    "durationMinutes": 90
  },
  {
    "name": "道の駅黒之瀬戸だんだん市場 食堂",
    "area": "長島",
    "genre": "海鮮",
    "description": "長島の入口で海産物や定食を楽しめる道の駅食堂。昼は1,500円前後からで、長島ドライブの休憩に便利。",
    "address": "鹿児島県出水郡長島町山門野4093",
    "lat": 32.1292,
    "lng": 130.1788,
    "region": "北薩",
    "tags": [
      "グルメ",
      "海鮮",
      "ランチ",
      "家族向け",
      "短時間",
      "休憩",
      "北薩",
      "長島"
    ],
    "durationMinutes": 45
  },
  {
    "name": "道の駅阿久根 レストラン",
    "area": "阿久根",
    "genre": "海鮮",
    "description": "東シナ海を望む道の駅で海鮮定食や軽食を楽しめる。昼は1,000〜1,500円前後で、北薩の海沿い移動に合う。",
    "address": "鹿児島県阿久根市大川4816-6",
    "lat": 31.948,
    "lng": 130.1965,
    "region": "北薩",
    "tags": [
      "グルメ",
      "海鮮",
      "ランチ",
      "家族向け",
      "短時間",
      "北薩",
      "阿久根"
    ],
    "durationMinutes": 45
  },
  {
    "name": "道の駅樋脇 遊湯館 レストラン",
    "area": "薩摩川内",
    "genre": "その他",
    "description": "温泉地の道の駅で定食や軽食を取れる休憩スポット。昼は1,000円台からで、北薩ドライブに使いやすい。",
    "address": "鹿児島県薩摩川内市樋脇町市比野156",
    "lat": 31.8237,
    "lng": 130.4157,
    "region": "北薩",
    "tags": [
      "グルメ",
      "その他",
      "ランチ",
      "家族向け",
      "短時間",
      "休憩",
      "北薩",
      "薩摩川内"
    ],
    "durationMinutes": 45
  },
  {
    "name": "曽木の滝公園 花むしろ",
    "area": "伊佐",
    "genre": "郷土料理",
    "description": "曽木の滝観光と合わせて郷土料理や定食を楽しめる食事処。昼は1,500円前後からで、北薩観光に便利。昼夜とも旅程に合わせて、鹿児島らしい食材を味わいやすい。",
    "address": "鹿児島県伊佐市大口宮人628-41",
    "lat": 32.0582,
    "lng": 130.6146,
    "region": "北薩",
    "tags": [
      "グルメ",
      "郷土料理",
      "ランチ",
      "ディナー",
      "北薩",
      "伊佐"
    ],
    "durationMinutes": 90
  },
  {
    "name": "観音滝温泉 滝の宿 レストラン",
    "area": "さつま町",
    "genre": "郷土料理",
    "description": "観音滝公園近くで温泉と食事を合わせられる施設。昼は1,500円前後からで、山あいの休憩に向く。昼夜とも旅程に合わせて、鹿児島らしい食材を味わいやすい。",
    "address": "鹿児島県薩摩郡さつま町中津川7601",
    "lat": 31.934,
    "lng": 130.4751,
    "region": "北薩",
    "tags": [
      "グルメ",
      "郷土料理",
      "ランチ",
      "ディナー",
      "家族向け",
      "休憩",
      "北薩",
      "さつま町"
    ],
    "durationMinutes": 90
  },
  {
    "name": "道の駅おおすみ弥五郎伝説の里 レストラン",
    "area": "曽於",
    "genre": "その他",
    "description": "曽於方面の道の駅で定食や地元産品を選べる。昼は1,000円台からで、大隅内陸部の移動休憩に便利。予算は1,000〜3,000円前後で、旅程に合わせて使いやすい。",
    "address": "鹿児島県曽於市大隅町岩川6134-1",
    "lat": 31.5984,
    "lng": 130.9967,
    "region": "大隅",
    "tags": [
      "グルメ",
      "その他",
      "ランチ",
      "家族向け",
      "短時間",
      "休憩",
      "大隅",
      "曽於"
    ],
    "durationMinutes": 45
  },
  {
    "name": "道の駅松山 やっちくふるさと村",
    "area": "志布志",
    "genre": "その他",
    "description": "志布志方面でバイキングや定食を楽しめる道の駅。昼は1,500円前後からで、家族連れの食事に使いやすい。",
    "address": "鹿児島県志布志市松山町新橋1526-1",
    "lat": 31.5417,
    "lng": 131.0164,
    "region": "大隅",
    "tags": [
      "グルメ",
      "その他",
      "ランチ",
      "家族向け",
      "短時間",
      "大隅",
      "志布志"
    ],
    "durationMinutes": 45
  },
  {
    "name": "うなぎの駅",
    "area": "志布志",
    "genre": "その他",
    "description": "志布志でうなぎ料理や土産を楽しめる施設。昼は2,000円前後からで、大隅東部の名物食材を味わえる。予算は1,000〜3,000円前後で、旅程に合わせて使いやすい。",
    "address": "鹿児島県志布志市志布志町志布志1286-8",
    "lat": 31.4758,
    "lng": 131.1,
    "region": "大隅",
    "tags": [
      "グルメ",
      "その他",
      "ランチ",
      "家族向け",
      "短時間",
      "大隅",
      "志布志"
    ],
    "durationMinutes": 45
  },
  {
    "name": "南風ガーデンレストラン",
    "area": "鹿屋",
    "genre": "カフェ",
    "description": "霧島ヶ丘公園周辺でランチやカフェ利用がしやすい店。昼は1,500円前後からで、ばら園観光と合わせやすい。",
    "address": "鹿児島県鹿屋市浜田町",
    "lat": 31.379,
    "lng": 130.812,
    "region": "大隅",
    "tags": [
      "グルメ",
      "カフェ",
      "ランチ",
      "休憩",
      "大隅",
      "鹿屋"
    ],
    "durationMinutes": 45
  },
  {
    "name": "内之浦えっがね祭り参加店エリア",
    "area": "肝付",
    "genre": "海鮮",
    "description": "内之浦周辺で伊勢えび料理を提供する季節店の集まるエリア。秋は要確認だが、大隅東岸の海鮮候補になる。昼は1,500円前後から、地元の魚介を楽しみやすい。",
    "address": "鹿児島県肝属郡肝付町南方周辺",
    "lat": 31.276,
    "lng": 131.079,
    "region": "大隅",
    "tags": [
      "グルメ",
      "海鮮",
      "ランチ",
      "大隅",
      "肝付"
    ],
    "durationMinutes": 60
  },
  {
    "name": "ホテル佐多岬 レストラン",
    "area": "南大隅",
    "genre": "海鮮",
    "description": "佐多岬方面で海鮮や定食を取れる宿泊施設内レストラン。昼夜は要確認だが、最南端ドライブの食事候補になる。",
    "address": "鹿児島県肝属郡南大隅町佐多馬籠582-8",
    "lat": 31.079,
    "lng": 130.705,
    "region": "大隅",
    "tags": [
      "グルメ",
      "海鮮",
      "ランチ",
      "ディナー",
      "家族向け",
      "大隅",
      "南大隅"
    ],
    "durationMinutes": 90
  },
  {
    "name": "一条活魚",
    "area": "種子島",
    "genre": "海鮮",
    "description": "種子島で地魚の刺身や定食を楽しめる食事処。昼夜とも2,000円前後から、島の海鮮を食べたい時に向く。",
    "address": "鹿児島県西之表市西之表",
    "lat": 30.733,
    "lng": 130.995,
    "region": "種子島・屋久島",
    "tags": [
      "グルメ",
      "海鮮",
      "ランチ",
      "ディナー",
      "離島",
      "種子島・屋久島",
      "種子島"
    ],
    "durationMinutes": 90
  },
  {
    "name": "ステッピンライオン",
    "area": "種子島",
    "genre": "カフェ",
    "description": "種子島でハンバーガーやカフェメニューを楽しめる店。昼は1,500円前後からで、海帰りの休憩にも向く。",
    "address": "鹿児島県熊毛郡中種子町野間",
    "lat": 30.532,
    "lng": 130.958,
    "region": "種子島・屋久島",
    "tags": [
      "グルメ",
      "カフェ",
      "ランチ",
      "休憩",
      "離島",
      "種子島・屋久島",
      "種子島"
    ],
    "durationMinutes": 45
  },
  {
    "name": "イルマーレ",
    "area": "屋久島",
    "genre": "カフェ",
    "description": "屋久島でイタリアンやカフェ利用ができる店。昼夜とも2,000円前後からで、魚料理以外の選択肢になる。",
    "address": "鹿児島県熊毛郡屋久島町小瀬田",
    "lat": 30.383,
    "lng": 130.659,
    "region": "種子島・屋久島",
    "tags": [
      "グルメ",
      "カフェ",
      "ランチ",
      "ディナー",
      "休憩",
      "海鮮",
      "離島",
      "種子島・屋久島"
    ],
    "durationMinutes": 45
  },
  {
    "name": "パノラマ",
    "area": "屋久島",
    "genre": "カフェ",
    "description": "屋久島の自然を感じながらランチやカフェを楽しめる店。昼は1,500円前後からで、島内移動中の休憩に向く。",
    "address": "鹿児島県熊毛郡屋久島町安房",
    "lat": 30.3195,
    "lng": 130.66,
    "region": "種子島・屋久島",
    "tags": [
      "グルメ",
      "カフェ",
      "ランチ",
      "休憩",
      "離島",
      "種子島・屋久島",
      "屋久島"
    ],
    "durationMinutes": 45
  },
  {
    "name": "島料理畦",
    "area": "奄美",
    "genre": "郷土料理",
    "description": "奄美の島料理や黒糖焼酎を楽しめる食事処。夜は3,000円前後からで、名瀬の夕食候補として使いやすい。",
    "address": "鹿児島県奄美市名瀬金久町",
    "lat": 28.381,
    "lng": 129.4938,
    "region": "奄美群島",
    "tags": [
      "グルメ",
      "郷土料理",
      "ディナー",
      "離島",
      "奄美群島",
      "奄美"
    ],
    "durationMinutes": 90
  },
  {
    "name": "みしょらんCAFE",
    "area": "奄美",
    "genre": "カフェ",
    "description": "奄美空港方面で軽食やスイーツ休憩に使いやすいカフェ。予算は1,000円前後からで、移動日の立ち寄りに便利。",
    "address": "鹿児島県奄美市笠利町",
    "lat": 28.431,
    "lng": 129.706,
    "region": "奄美群島",
    "tags": [
      "グルメ",
      "カフェ",
      "短時間",
      "休憩",
      "離島",
      "奄美群島",
      "奄美"
    ],
    "durationMinutes": 45
  },
  {
    "name": "喫茶スマイル",
    "area": "徳之島",
    "genre": "カフェ",
    "description": "徳之島で軽食や喫茶利用ができる地元の店。予算は1,000円前後からで、島内ドライブ中の休憩に向く。予算は1,000円前後からで、観光中の休憩にも向く。",
    "address": "鹿児島県大島郡徳之島町亀津",
    "lat": 27.726,
    "lng": 129.018,
    "region": "奄美群島",
    "tags": [
      "グルメ",
      "カフェ",
      "休憩",
      "離島",
      "奄美群島",
      "徳之島"
    ],
    "durationMinutes": 45
  },
  {
    "name": "ブルーマリン徳之島 レストラン",
    "area": "徳之島",
    "genre": "海鮮",
    "description": "徳之島の海沿いで食事を取りやすい施設内レストラン。昼夜は要確認だが、島魚や定食の候補になる。昼は1,500円前後から、地元の魚介を楽しみやすい。",
    "address": "鹿児島県大島郡徳之島町亀津",
    "lat": 27.729,
    "lng": 129.022,
    "region": "奄美群島",
    "tags": [
      "グルメ",
      "海鮮",
      "ランチ",
      "ディナー",
      "家族向け",
      "離島",
      "奄美群島",
      "徳之島"
    ],
    "durationMinutes": 90
  },
  {
    "name": "シーサー屋",
    "area": "与論",
    "genre": "郷土料理",
    "description": "与論島で島料理や定食を楽しめる食事処。夜は3,000円前後からで、茶花周辺の夕食候補として使いやすい。",
    "address": "鹿児島県大島郡与論町茶花",
    "lat": 27.0482,
    "lng": 128.4145,
    "region": "奄美群島",
    "tags": [
      "グルメ",
      "郷土料理",
      "ランチ",
      "ディナー",
      "離島",
      "奄美群島",
      "与論"
    ],
    "durationMinutes": 90
  }
]
